[
 
  {
    "name" : "全家嘉義八德店",
    "lng" : "120.430511",
    "lat" : "23.488769",
    "phone" : "05-2911792",
    "address" : "嘉義市西區八德路240號"
  },
  {
    "name" : "全家嘉義德慶店",
    "lng" : "120.432107",
    "lat" : "23.481944",
    "phone" : "05-2319477",
    "address" : "嘉義市西區中興路319之3號1樓"
  },
  {
    "name" : "全家嘉義新億高店",
    "lng" : "120.442772",
    "lat" : "23.470169",
    "phone" : "05-2236429",
    "address" : "嘉義市西區仁愛路212號"
  },
  {
    "name" : "全家嘉義光路店 ",
    "lng" : "120.443391",
    "lat" : "23.459358",
    "phone" : "05-2843075",
    "address" : "嘉義市西區民生南路528號"
  },
  {
    "name" : "全家嘉義漢口店",
    "lng" : "120.436101",
    "lat" : "23.464947",
    "phone" : "05-2844070",
    "address" : "嘉義市西區南京路392號"
  },
  {
    "name" : "全家嘉義興達店",
    "lng" : "120.445109",
    "lat" : "23.489062",
    "phone" : "05-2319795",
    "address" : "嘉義市西區興達路318號"
  },
  {
    "name" : "全家嘉義仁義店 ",
    "lng" : "120.455515",
    "lat" : "23.497926",
    "phone" : "05-2766504 ",
    "address" : "嘉義市東區台林街99號"
  },
  {
    "name" : "全家嘉義朝陽店",
    "lng" : "120.457844",
    "lat" : "23.474464",
    "phone" : "05-2764353",
    "address" : "嘉義市東區垂楊路132號"
  },
  {
    "name" : "全家嘉義博東店",
    "lng" : "120.459828",
    "lat" : "23.490739",
    "phone" : "05-2788717",
    "address" : "嘉義市東區博東路183號"
  }
]