[
 
  {
    "name" : "全家竹北中正西店",
    "lng" : "120.999689",
    "lat" : "24.841190",
    "phone" : "03-5528316",
    "address" : "新竹縣竹北市中正西路149號"
  },
  {
    "name" : "全家竹北六家店",
    "lng" : "121.037303",
    "lat" : "24.806440",
    "phone" : "03-6681742",
    "address" : "新竹縣竹北市文興路二段529號"
  },
  {
    "name" : "全家竹北宏福店 ",
    "lng" : "121.015270",
    "lat" : "24.830784",
    "phone" : "03-6571083 ",
    "address" : "新竹縣竹北市光明一路236號"
  },
  {
    "name" : "全家竹北竹采店",
    "lng" : "121.021579",
    "lat" : "24.889910",
    "phone" : "03-5505119",
    "address" : "新竹縣竹北市成功一街82號1樓後段"
  },
  {
    "name" : "全家竹東北興店",
    "lng" : "121.082071",
    "lat" : "24.748291",
    "phone" : "03-5967896",
    "address" : "新竹縣竹東鎮北興路三段503號"
  },
  {
    "name" : "全家竹東新商華店 ",
    "lng" : "121.086577",
    "lat" : "24.739055",
    "phone" : "03-5100715",
    "address" : "新竹縣竹東鎮東寧路三段43號"
  },
  {
    "name" : "全家湖口新工業店",
    "lng" : "121.026590",
    "lat" : "24.869403",
    "phone" : "03-5977127",
    "address" : "新竹縣湖口鄉工業一路36號1樓"
  },
  {
    "name" : "全家湖口仁和店",
    "lng" : "121.012901",
    "lat" : "24.873983",
    "phone" : "03-5971288",
    "address" : "新竹縣湖口鄉仁和路45號"
  },
  {
    "name" : "全家新埔埔德店",
    "lng" : "121.070530",
    "lat" : "24.827726",
    "phone" : "03-5880669",
    "address" : "新竹縣新埔鎮中正路629號"
  },
  {
    "name" : "全家新豐建興店",
    "lng" : "120.995994",
    "lat" : "24.870574",
    "phone" : "03-5574185",
    "address" : "新竹縣新豐鄉建興路32號"
  },
  {
    "name" : "全家橫山致豐店",
    "lng" : "121.129231",
    "lat" : "24.726066",
    "phone" : "03-5931649",
    "address" : "新竹縣橫山鄉中豐路二段112-2號"
  }
]