[
  {
    "name" : "全家八德大義店 ",
    "lng" : "121.300360",
    "lat" : "24.962771",
    "phone" : "03-3712776",
    "address" : "桃園縣八德市介壽路一段785號"
  },
  {
    "name" : "全家八德德富店",
    "lng" : "121.278912",
    "lat" : "24.960494",
    "phone" : "03-3756696",
    "address" : "桃園縣八德市廣福路805號"
  },
  {
    "name" : "全家大園蓮園店",
    "lng" : "121.175670",
    "lat" : "25.062246",
    "phone" : "03-3858411",
    "address" : "桃園縣大園鄉大觀路602號"
  },
  {
    "name" : "全家大園果林店",
    "lng" : "121.266989",
    "lat" : "25.074161",
    "phone" : "03-3936443",
    "address" : "桃園縣大園鄉拔子林23之83號"
  },
  {
    "name" : "全家中壢中央三店",
    "lng" : "121.195907",
    "lat" : "24.968442",
    "phone" : "03-4205531",
    "address" : "桃園縣中壢市中大路300號"
  },
  {
    "name" : "全家中壢源興店 ",
    "lng" : "121.224155",
    "lat" : "24.955346",
    "phone" : "03-2807380 ",
    "address" : "桃園縣中壢市中平路86-1號"
  },
  {
    "name" : "全家中壢吉林店",
    "lng" : "121.248290",
    "lat" : "24.982388",
    "phone" : "03-4514926",
    "address" : "桃園縣中壢市吉林二路79巷2號"
  },
  {
    "name" : "全家中壢忠孝店 ",
    "lng" : "121.256524",
    "lat" : "24.973793",
    "phone" : "03-4519387 ",
    "address" : "桃園縣中壢市信義路76號"
  },
  {
    "name" : "全家中壢後站店",
    "lng" : "121.225950",
    "lat" : "24.952764",
    "phone" : "03-4593622",
    "address" : "桃園縣中壢市健行路2號1樓"
  },
  {
    "name" : "全家中壢禾凱店 ",
    "lng" : "121.243061",
    "lat" : "24.958911",
    "phone" : "03-4355908 ",
    "address" : "桃園縣中壢市新中北路380號"
  },
  {
    "name" : "全家中壢榮安店",
    "lng" : "121.260611",
    "lat" : "24.962253",
    "phone" : "03-2850697",
    "address" : "桃園縣中壢市榮安十三街205號"
  },
  {
    "name" : "全家中壢龍福店",
    "lng" : "121.231995",
    "lat" : "24.967716",
    "phone" : "03-4514155",
    "address" : "桃園縣中壢市福州二街409號"
  },
  {
    "name" : "全家中壢龍川店 ",
    "lng" : "121.249319",
    "lat" : "24.934593",
    "phone" : "03-4371941 ",
    "address" : "桃園縣中壢市龍川街3號"
  },
  {
    "name" : "全家中壢龍泉店",
    "lng" : "121.233780",
    "lat" : "24.935415",
    "phone" : "03-4688069",
    "address" : "桃園縣中壢市龍岡路三段188號"
  },
  {
    "name" : "全家中壢龍東店",
    "lng" : "121.251932",
    "lat" : "24.929076",
    "phone" : "03-4668249",
    "address" : "桃園縣中壢市龍東路124號"
  },
  {
    "name" : "全家平鎮日星店",
    "lng" : "121.212240",
    "lat" : "24.903969",
    "phone" : "03-4693600",
    "address" : "桃園縣平鎮市中豐路山頂段3號"
  },
  {
    "name" : "全家平鎮南東店",
    "lng" : "121.211509",
    "lat" : "24.919717",
    "phone" : "03-4397532",
    "address" : "桃園縣平鎮市中豐路南勢二段1號"
  },
  {
    "name" : "全家平鎮民族店",
    "lng" : "121.203644",
    "lat" : "24.956919",
    "phone" : "03-4024798",
    "address" : "桃園縣平鎮市民族路二段191號"
  },
  {
    "name" : "全家平鎮民族店",
    "lng" : "121.203644",
    "lat" : "24.956919",
    "phone" : "03-4024798",
    "address" : "桃園縣平鎮市民族路二段191號"
  },
  {
    "name" : "全家平鎮義興店",
    "lng" : "121.211298",
    "lat" : "24.951492",
    "phone" : "03-4931646",
    "address" : "桃園縣平鎮市育達路75號"
  },
  {
    "name" : "全家桃園御賞店",
    "lng" : "121.296361",
    "lat" : "25.009923",
    "phone" : "03-2161611",
    "address" : "桃園縣桃園市大興西路二段128號"
  },
  {
    "name" : "全家桃園大豐店",
    "lng" : "121.316905",
    "lat" : "24.980525",
    "phone" : "03-3642026",
    "address" : "桃園縣桃園市大豐路102號"
  },
  {
    "name" : "全家桃園朝陽店",
    "lng" : "121.313582",
    "lat" : "24.995707",
    "phone" : "03-3381667",
    "address" : "桃園縣桃園市中山東路17號"
  },
  {
    "name" : "全家桃園中山店",
    "lng" : "121.297745",
    "lat" : "24.991182",
    "phone" : "03-3334800",
    "address" : "桃園縣桃園市中山路505號"
  },
  {
    "name" : "全家桃園世貿店 ",
    "lng" : "121.298763",
    "lat" : "25.015609",
    "phone" : "03-3577571",
    "address" : "桃園縣桃園市中正路1069號"
  },
  {
    "name" : "全家桃園中州店",
    "lng" : "121.293423",
    "lat" : "24.988522",
    "phone" : "03-2288471",
    "address" : "桃園縣桃園市中州街57號"
  },
  {
    "name" : "全家桃園明德店",
    "lng" : "121.311607",
    "lat" : "24.991038",
    "phone" : "03-3362313",
    "address" : "桃園縣桃園市中華路3號1樓之9"
  },
  {
    "name" : "全家桃園民光店",
    "lng" : "121.318439",
    "lat" : "25.007907",
    "phone" : "03-3588972",
    "address" : "桃園縣桃園市民光東路120號"
  },
  {
    "name" : "全家桃園縣安店",
    "lng" : "121.300001",
    "lat" : "24.996419",
    "phone" : "03-3335813",
    "address" : "桃園縣桃園市民安路99號"
  },
  {
    "name" : "全家桃園東陽店",
    "lng" : "121.316243",
    "lat" : "24.994248",
    "phone" : "03-3395478",
    "address" : "桃園縣桃園市成功路二段69號"
  },
  {
    "name" : "全家桃園建新店 ",
    "lng" : "121.311732",
    "lat" : "24.982291",
    "phone" : "03-3751735 ",
    "address" : "桃園縣桃園市建新街88號"
  },
  {
    "name" : "全家桃園桃都店 ",
    "lng" : "121.322926",
    "lat" : "24.976546",
    "phone" : "03-3716791 ",
    "address" : "桃園縣桃園市桃鶯路388號"
  },
  {
    "name" : "全家桃園莊園店",
    "lng" : "121.290091",
    "lat" : "25.021200",
    "phone" : "03-2160387",
    "address" : "桃園縣桃園市莊敬路二段243號"
  },
  {
    "name" : "全家桃園慈愛店",
    "lng" : "121.299261",
    "lat" : "25.006113",
    "phone" : "03-",
    "address" : "桃園縣桃園市慈光街114號"
  },
  {
    "name" : "全家楊梅楊光店 ",
    "lng" : "121.168466",
    "lat" : "24.908524",
    "phone" : "03-4827453",
    "address" : "桃園縣楊梅市中山北路二段48-1號"
  },
  {
    "name" : "全家楊梅新成店",
    "lng" : "121.146757",
    "lat" : "24.909102",
    "phone" : "03-4855816",
    "address" : "桃園縣楊梅市新成路171號"
  },
  {
    "name" : "全家楊梅幼獅店",
    "lng" : "121.174294",
    "lat" : "24.923234",
    "phone" : "03-4965695",
    "address" : "桃園縣楊梅市獅一路1-6號"
  },
  {
    "name" : "全家楊梅新成店",
    "lng" : "121.146757",
    "lat" : "24.909102",
    "phone" : "03-4855816",
    "address" : "桃園縣楊梅鎮新成路171號"
  },
  {
    "name" : "全家龍潭中興店",
    "lng" : "121.238666",
    "lat" : "24.875475",
    "phone" : "03-4990684",
    "address" : "桃園縣龍潭鄉中興路65號"
  },
  {
    "name" : "全家龜山文學店",
    "lng" : "121.364784",
    "lat" : "25.059128",
    "phone" : "03-3186557",
    "address" : "桃園縣龜山鄉文化二路34巷14弄12號"
  },
  {
    "name" : "全家龜山新華店",
    "lng" : "121.373866",
    "lat" : "25.038809",
    "phone" : "03-3277350",
    "address" : "桃園縣龜山鄉復興三路667號"
  },
  {
    "name" : "全家龜山萬壽店 ",
    "lng" : "121.345696",
    "lat" : "24.999190",
    "phone" : "03-3501272 ",
    "address" : "桃園縣龜山鄉萬壽路二段662號"
  },
  {
    "name" : "全家蘆竹興福店",
    "lng" : "121.259259",
    "lat" : "25.023829",
    "phone" : "03-3132705",
    "address" : "桃園縣蘆竹鄉大竹路533號"
  },
  {
    "name" : "全家蘆竹中愛店",
    "lng" : "121.301319",
    "lat" : "25.051288",
    "phone" : "03-3114647",
    "address" : "桃園縣蘆竹鄉中山路18之1號1樓"
  },
  {
    "name" : "全家蘆竹奉化店 ",
    "lng" : "121.285572",
    "lat" : "25.041047",
    "phone" : "03-3211379",
    "address" : "桃園縣蘆竹鄉奉化路38號"
  },
  {
    "name" : "全家蘆竹南竹店 ",
    "lng" : "121.291281",
    "lat" : "25.047091",
    "phone" : "03-2124691 ",
    "address" : "桃園縣蘆竹鄉南竹路一段68號"
  },
  {
    "name" : "全家觀音敬業店",
    "lng" : "121.124490",
    "lat" : "25.054786",
    "phone" : "03-4160058",
    "address" : "桃園縣觀音鄉成功路一段551號1樓"
  }
]