[
  {
    "name" : "全家基隆新站前店 ",
    "lng" : "121.739814",
    "lat" : "25.131320",
    "phone" : "02-24273646 ",
    "address" : "基隆市仁愛區忠一路19號"
  },
  {
    "name" : "全家基隆長庚店",
    "lng" : "121.723563",
    "lat" : "25.120766",
    "phone" : "02-24326001 ",
    "address" : "基隆市安樂區安樂路二段157號"
  },
  {
    "name" : "全家基隆萬金店 ",
    "lng" : "121.711830",
    "lat" : "25.140390",
    "phone" : "02-24333875 ",
    "address" : "基隆市安樂區基金一路146號"
  },
  {
    "name" : "全家基隆大武崙店",
    "lng" : "121.703807",
    "lat" : "25.141942",
    "phone" : "02-24346967 ",
    "address" : "基隆市安樂區基金一路389號"
  },
  {
    "name" : "全家基隆信一店",
    "lng" : "121.746842",
    "lat" : "25.129548",
    "phone" : "02-24241255",
    "address" : "基隆市信義區信一路148號"
  }
]