[
 
  {
    "name" : "全家大甲甲上店",
    "lng" : "120.619075",
    "lat" : "24.347203",
    "phone" : "04-26805451",
    "address" : "台中市大甲區蔣公路251號"
  },
  {
    "name" : "全家大肚王田店",
    "lng" : "120.576376",
    "lat" : "24.118858",
    "phone" : "04-26934823",
    "address" : "台中市大肚區沙田路一段144之1號"
  },
  {
    "name" : "全家大肚火車頭店",
    "lng" : "120.544316",
    "lat" : "24.154322",
    "phone" : "04-26990401",
    "address" : "台中市大肚區沙田路二段771號"
  },
  {
    "name" : "全家大肚台蔗店",
    "lng" : "120.580618",
    "lat" : "24.173103",
    "phone" : "04-26912459",
    "address" : "台中市大肚區遊園路二段2號"
  },
  {
    "name" : "全家大里草湖橋店",
    "lng" : "120.697426",
    "lat" : "24.084245",
    "phone" : "04-24964830",
    "address" : "台中市大里區中興路一段2之1號"
  },
  {
    "name" : "全家大里日新店",
    "lng" : "120.692337",
    "lat" : "24.119991",
    "phone" : "04-24838943",
    "address" : "台中市大里區日新路429號"
  },
  {
    "name" : "全家大里順發店",
    "lng" : "120.676697",
    "lat" : "24.107860",
    "phone" : "04-24069634",
    "address" : "台中市大里區永隆路209號"
  },
  {
    "name" : "全家大里益民店",
    "lng" : "120.684117",
    "lat" : "24.107573",
    "phone" : "04-24813483",
    "address" : "台中市大里區益民路二段173號"
  },
  {
    "name" : "全家大雅廣福店 ",
    "lng" : "120.710367",
    "lat" : "24.237486",
    "phone" : "04-25681946 ",
    "address" : "台中市大雅區中山路47號"
  },
  {
    "name" : "全家大雅中科店",
    "lng" : "120.630874",
    "lat" : "24.240811",
    "phone" : "04-25604708",
    "address" : "台中市大雅區中清路四段61號"
  },
  {
    "name" : "全家大雅楓林店 ",
    "lng" : "120.665878",
    "lat" : "24.234824",
    "phone" : "04-25684539 ",
    "address" : "台中市大雅區民生路三段458號"
  },
  {
    "name" : "全家太平水林店",
    "lng" : "120.729748",
    "lat" : "24.150076",
    "phone" : "04-23915427",
    "address" : "台中市太平區中山路二段118號"
  },
  {
    "name" : "全家太平永平店",
    "lng" : "120.718128",
    "lat" : "24.131332",
    "phone" : "04-22732879",
    "address" : "台中市太平區永平路一段65號"
  },
  {
    "name" : "全家太平光興店",
    "lng" : "120.730092",
    "lat" : "24.109964",
    "phone" : "04-22704228",
    "address" : "台中市太平區光興路1072號"
  },
  {
    "name" : "全家太平永益店",
    "lng" : "120.719830",
    "lat" : "24.115134",
    "phone" : "04-22774868",
    "address" : "台中市太平區長億六街53-27號"
  },
  {
    "name" : "全家太平建昌店 ",
    "lng" : "120.715292",
    "lat" : "24.138197",
    "phone" : "04-22737247 ",
    "address" : "台中市太平區新平路二段82號"
  },
  {
    "name" : "全家太平育仁店 ",
    "lng" : "120.721179",
    "lat" : "24.151946",
    "phone" : "04-23912587 ",
    "address" : "台中市太平區新平路三段146號"
  },
  {
    "name" : "全家太平金城店 ",
    "lng" : "120.713408",
    "lat" : "24.160012",
    "phone" : "04-23955137",
    "address" : "台中市太平區樹德路275號"
  },
  {
    "name" : "全家台中興安店",
    "lng" : "120.694487",
    "lat" : "24.174725",
    "phone" : "04-22460995",
    "address" : "台中市北屯區大連路三段137號"
  },
  {
    "name" : "全家台中睿景店",
    "lng" : "120.711623",
    "lat" : "24.164843",
    "phone" : "04-24361805",
    "address" : "台中市北屯區太原路三段849號"
  },
  {
    "name" : "全家台中四平店 ",
    "lng" : "120.670629",
    "lat" : "24.178670",
    "phone" : "04-22965197",
    "address" : "台中市北屯區四平路35-6號"
  },
  {
    "name" : "全家台中培鶯店",
    "lng" : "120.740498",
    "lat" : "24.179732",
    "phone" : "　",
    "address" : "台中市北屯區東山路二段51-11號"
  },
  {
    "name" : "全家台中培鶯店",
    "lng" : "120.740498",
    "lat" : "24.179732",
    "phone" : "04-22392572",
    "address" : "台中市北屯區東山路二段51號"
  },
  {
    "name" : "全家台中東光店",
    "lng" : "120.700939",
    "lat" : "24.169228",
    "phone" : "04-24360567",
    "address" : "台中市北屯區東光路886號"
  },
  {
    "name" : "全家台中金強店 ",
    "lng" : "120.689954",
    "lat" : "24.182370",
    "phone" : "04-22474880 ",
    "address" : "台中市北屯區松竹路二段366-1號"
  },
  {
    "name" : "全家台中真義店",
    "lng" : "120.698458",
    "lat" : "24.184304",
    "phone" : "04-22479532",
    "address" : "台中市北屯區松義街160號"
  },
  {
    "name" : "全家台中崇大店",
    "lng" : "120.685944",
    "lat" : "24.175487",
    "phone" : "04-22477685",
    "address" : "台中市北屯區崇德路二段276號"
  },
  {
    "name" : "全家台中崇大店",
    "lng" : "120.685944",
    "lat" : "24.175487",
    "phone" : "04-22477685",
    "address" : "台中市北屯區崇德路二段276號"
  },
  {
    "name" : "全家台中樂樂店",
    "lng" : "120.687433",
    "lat" : "24.171154",
    "phone" : "04-22365516",
    "address" : "台中市北屯區熱河路二段119號"
  },
  {
    "name" : "全家台中學友店 ",
    "lng" : "120.685611",
    "lat" : "24.153849",
    "phone" : "04-22252991 ",
    "address" : "台中市北區三民路三段215號"
  },
  {
    "name" : "全家台中東成店",
    "lng" : "120.701732",
    "lat" : "24.156969",
    "phone" : "04-22345768",
    "address" : "台中市北區東成路22號"
  },
  {
    "name" : "全家台中漢口店",
    "lng" : "120.674885",
    "lat" : "24.166788",
    "phone" : "04-22922475",
    "address" : "台中市北區賴厝里漢口路四段56號1樓"
  },
  {
    "name" : "全家外埔皇后店",
    "lng" : "120.664158",
    "lat" : "24.330472",
    "phone" : "04-26837583",
    "address" : "台中市外埔區六分路237號"
  },
  {
    "name" : "全家后里新中興店",
    "lng" : "120.657486",
    "lat" : "24.327769",
    "phone" : "04-25581262",
    "address" : "台中市后里區甲后路196號"
  },
  {
    "name" : "全家台中上安店",
    "lng" : "120.639770",
    "lat" : "24.171573",
    "phone" : "04-24524993",
    "address" : "台中市西屯區上安路136號1樓"
  },
  {
    "name" : "全家台中金工店",
    "lng" : "120.613862",
    "lat" : "24.174868",
    "phone" : "04-23598407",
    "address" : "台中市西屯區工業區一路98-130號"
  },
  {
    "name" : "全家台中天保店 ",
    "lng" : "120.617545",
    "lat" : "24.175628",
    "phone" : "04-23587991 ",
    "address" : "台中市西屯區中工三路214-1號"
  },
  {
    "name" : "全家台中真安店    ",
    "lng" : "120.666229",
    "lat" : "24.175166",
    "phone" : "04-22994955",
    "address" : "台中市西屯區中清西二街79號"
  },
  {
    "name" : "全家台中文華店 ",
    "lng" : "120.644761",
    "lat" : "24.175367",
    "phone" : "04-24514285 ",
    "address" : "台中市西屯區文華路3-3號"
  },
  {
    "name" : "全家台中登峰店",
    "lng" : "120.656495",
    "lat" : "24.159190",
    "phone" : "04-24523433",
    "address" : "台中市西屯區台中港路二段128-3號"
  },
  {
    "name" : "全家台中金豹店",
    "lng" : "120.651371",
    "lat" : "24.163609",
    "phone" : "04-23128382",
    "address" : "台中市西屯區四川一街26號"
  },
  {
    "name" : "全家台中金豹店",
    "lng" : "120.651371",
    "lat" : "24.163609",
    "phone" : "04-23128382",
    "address" : "台中市西屯區四川一街26號"
  },
  {
    "name" : "全家台中福美店",
    "lng" : "120.642362",
    "lat" : "24.181591",
    "phone" : "04-27069053",
    "address" : "台中市西屯區西安街91號"
  },
  {
    "name" : "全家台中尚青店",
    "lng" : "120.656329",
    "lat" : "24.163643",
    "phone" : "04-23126905",
    "address" : "台中市西屯區青海路一段23號"
  },
  {
    "name" : "全家台中儷晶店",
    "lng" : "120.646785",
    "lat" : "24.168924",
    "phone" : "04-24525281",
    "address" : "台中市西屯區青海路二段153號"
  },
  {
    "name" : "全家台中藍天店",
    "lng" : "120.642143",
    "lat" : "24.163305",
    "phone" : "04-22519236",
    "address" : "台中市西屯區惠來路二段240號1樓"
  },
  {
    "name" : "全家台中好市店",
    "lng" : "120.644913",
    "lat" : "24.180327",
    "phone" : "04-24528914",
    "address" : "台中市西屯區福星路330之6號"
  },
  {
    "name" : "全家台中新福瑞店 ",
    "lng" : "120.606232",
    "lat" : "24.187399",
    "phone" : "04-24620357",
    "address" : "台中市西屯區福瑞街92號"
  },
  {
    "name" : "全家台中上雅店",
    "lng" : "120.657082",
    "lat" : "24.200684",
    "phone" : "04-24263052",
    "address" : "台中市西屯區環中路一段1850號"
  },
  {
    "name" : "全家台中鑫美店",
    "lng" : "120.661792",
    "lat" : "24.154759",
    "phone" : "04-23284015",
    "address" : "台中市西區美村路一段22號"
  },
  {
    "name" : "全家台中科博館店",
    "lng" : "120.665221",
    "lat" : "24.156322",
    "phone" : "04-23297287",
    "address" : "台中市西區博館路117號"
  },
  {
    "name" : "全家沙鹿弘光店 ",
    "lng" : "120.579771",
    "lat" : "24.215317",
    "phone" : "04-26335938 ",
    "address" : "台中市沙鹿區北勢東路263號"
  },
  {
    "name" : "全家沙鹿英才店",
    "lng" : "120.575464",
    "lat" : "24.226730",
    "phone" : "04-26326567",
    "address" : "台中市沙鹿區北勢東路530號"
  },
  {
    "name" : "全家沙鹿大展店",
    "lng" : "120.568159",
    "lat" : "24.201951",
    "phone" : "04-26526030",
    "address" : "台中市沙鹿區自強路336號1樓"
  },
  {
    "name" : "全家和平新谷關店",
    "lng" : "120.984965",
    "lat" : "24.184666",
    "phone" : "04-25950073",
    "address" : "台中市和平區東關路一段127-5號"
  },
  {
    "name" : "全家台中東英店",
    "lng" : "120.700825",
    "lat" : "24.135862",
    "phone" : "04-22138121",
    "address" : "台中市東區旱溪東路一段300號"
  },
  {
    "name" : "全家台中傑盛店",
    "lng" : "120.643980",
    "lat" : "24.148963",
    "phone" : "04-22525201",
    "address" : "台中市南屯區大墩十一街372號"
  },
  {
    "name" : "全家台中田心店",
    "lng" : "120.647677",
    "lat" : "24.142511",
    "phone" : "04-24734909",
    "address" : "台中市南屯區大墩六街261號"
  },
  {
    "name" : "全家台中惠中店",
    "lng" : "120.640417",
    "lat" : "24.148635",
    "phone" : "04-23816112",
    "address" : "台中市南屯區惠中路三段46號"
  },
  {
    "name" : "全家台中楓樹店",
    "lng" : "120.627420",
    "lat" : "24.117786",
    "phone" : "04-24700620",
    "address" : "台中市南屯區黎明路一段255號"
  },
  {
    "name" : "全家台中新文山店",
    "lng" : "120.611215",
    "lat" : "24.146050",
    "phone" : "04-23805475",
    "address" : "台中市南屯區嶺東路730號"
  },
  {
    "name" : "全家台中金大慶店 ",
    "lng" : "120.652011",
    "lat" : "24.114986",
    "phone" : "04-22600280 ",
    "address" : "台中市南區大慶街二段8號"
  },
  {
    "name" : "全家台中金球店 ",
    "lng" : "120.665456",
    "lat" : "24.116702",
    "phone" : "04-22656331 ",
    "address" : "台中市南區工學路61號"
  },
  {
    "name" : "全家台中金南門店",
    "lng" : "120.681214",
    "lat" : "24.122221",
    "phone" : "04-22856435",
    "address" : "台中市南區南門路57號"
  },
  {
    "name" : "全家烏日新溪南店",
    "lng" : "120.642907",
    "lat" : "24.074430",
    "phone" : "04-23353211",
    "address" : "台中市烏日區溪南路一段659號"
  },
  {
    "name" : "全家梧棲港埠店",
    "lng" : "120.537366",
    "lat" : "24.253075",
    "phone" : "04-26584770",
    "address" : "台中市梧棲區港埠路二段17號"
  },
  {
    "name" : "全家清水中山店",
    "lng" : "120.575101",
    "lat" : "24.267603",
    "phone" : "04-26221679",
    "address" : "台中市清水區中山路110號"
  },
  {
    "name" : "全家清水好美店",
    "lng" : "120.571217",
    "lat" : "24.290896",
    "phone" : "04-26261265",
    "address" : "台中市清水區高美路308-1號"
  },
  {
    "name" : "全家清水米糕店 ",
    "lng" : "120.577813",
    "lat" : "24.271128",
    "phone" : "04-26222901",
    "address" : "台中市清水區新興路119號"
  },
  {
    "name" : "全家新社興安店",
    "lng" : "120.808398",
    "lat" : "24.242205",
    "phone" : "04-25823085",
    "address" : "台中市新社區興社街四段26號"
  },
  {
    "name" : "全家潭子新圓通店",
    "lng" : "120.700740",
    "lat" : "24.210559",
    "phone" : "04-25343731",
    "address" : "台中市潭子區勝利路58號"
  },
  {
    "name" : "全家潭子真興店",
    "lng" : "120.706335",
    "lat" : "24.203259",
    "phone" : "04-25368963",
    "address" : "台中市潭子區復興路一段8號"
  },
  {
    "name" : "全家潭子摘星店 ",
    "lng" : "120.706000",
    "lat" : "24.218000",
    "phone" : "04-25343750",
    "address" : "台中市潭子區雅豐街323號"
  },
  {
    "name" : "全家潭子榮興店",
    "lng" : "120.701206",
    "lat" : "24.188933",
    "phone" : "04-25351461",
    "address" : "台中市潭子區榮興街57巷1號"
  },
  {
    "name" : "全家龍井龍后店",
    "lng" : "120.586046",
    "lat" : "24.181672",
    "phone" : "04-26522061 ",
    "address" : "台中市龍井區新興路21號"
  },
  {
    "name" : "全家龍井龍山店",
    "lng" : "120.549070",
    "lat" : "24.211726",
    "phone" : "04-26361524",
    "address" : "台中市龍井區龍山街85號"
  },
  {
    "name" : "全家龍井火力店",
    "lng" : "120.518910",
    "lat" : "24.197321",
    "phone" : "04-26391652",
    "address" : "台中市龍井區臨港路二段1號"
  },
  {
    "name" : "全家豐原新車站店",
    "lng" : "120.721876",
    "lat" : "24.253786",
    "phone" : "04-25151473",
    "address" : "台中市豐原區三民路21號"
  },
  {
    "name" : "全家豐原社皮店 ",
    "lng" : "120.699103",
    "lat" : "24.246464",
    "phone" : "04-25152711 ",
    "address" : "台中市豐原區大豐路五段450號"
  },
  {
    "name" : "全家豐原新水源店",
    "lng" : "120.745107",
    "lat" : "24.255203",
    "phone" : "04-25247522",
    "address" : "台中市豐原區水源路17號"
  },
  {
    "name" : "全家豐原新水源店",
    "lng" : "120.745107",
    "lat" : "24.255203",
    "phone" : "04-25247522",
    "address" : "台中市豐原區水源路17號"
  },
  {
    "name" : "全家豐原中興店",
    "lng" : "120.711295",
    "lat" : "24.246588",
    "phone" : "04-25263450",
    "address" : "台中市豐原區圓環南路76號"
  },
  {
    "name" : "全家霧峰中投店",
    "lng" : "120.662860",
    "lat" : "24.062854",
    "phone" : "04-23306848",
    "address" : "台中市霧峰區中投西路二段430號"
  },
  {
    "name" : "全家霧峰新六順店",
    "lng" : "120.702489",
    "lat" : "24.069682",
    "phone" : "04-23391863",
    "address" : "台中市霧峰區民生路201號"
  },
  {
    "name" : "全家霧峰金亞洲店",
    "lng" : "120.680422",
    "lat" : "24.057063",
    "phone" : "04-23309412",
    "address" : "台中市霧峰區柳豐路368號"
  }
]