[
 
  {
    "name" : "全家二林金林店",
    "lng" : "120.369954",
    "lat" : "23.898076",
    "phone" : "04-8968890",
    "address" : "彰化縣二林鎮大成路一段236號"
  },
  {
    "name" : "全家北斗寶斗店",
    "lng" : "120.523369",
    "lat" : "23.872041",
    "phone" : "04-8872120",
    "address" : "彰化縣北斗鎮斗苑路一段193號"
  },
  {
    "name" : "全家永靖新頂新店",
    "lng" : "120.546584",
    "lat" : "23.919562",
    "phone" : "04-",
    "address" : "彰化縣永靖鄉中山路一段869號"
  },
  {
    "name" : "全家田中金斗店",
    "lng" : "120.579927",
    "lat" : "23.861683",
    "phone" : "04-8748349",
    "address" : "彰化縣田中鎮斗中路一段232號"
  },
  {
    "name" : "全家伸港雙興店",
    "lng" : "120.492949",
    "lat" : "24.146529",
    "phone" : "04-7987049",
    "address" : "彰化縣伸港鄉中華路463號"
  },
  {
    "name" : "全家和美八大店 ",
    "lng" : "120.494065",
    "lat" : "24.107728",
    "phone" : "04-7563372",
    "address" : "彰化縣和美鎮鹿和路六段310號"
  },
  {
    "name" : "全家和美新矽品店",
    "lng" : "120.537733",
    "lat" : "24.093638",
    "phone" : "04-7350647",
    "address" : "彰化縣和美鎮彰新路二段8號"
  },
  {
    "name" : "全家社頭金蟹店 ",
    "lng" : "120.582512",
    "lat" : "23.902874",
    "phone" : "04-8712664",
    "address" : "彰化縣社頭鄉中興路82號"
  },
  {
    "name" : "全家芬園金馬店",
    "lng" : "120.627555",
    "lat" : "24.015168",
    "phone" : "049-2510284",
    "address" : "彰化縣芬園鄉信義路5號"
  },
  {
    "name" : "全家花壇正花店",
    "lng" : "120.541585",
    "lat" : "24.024050",
    "phone" : "04-7867840",
    "address" : "彰化縣花壇鄉中山路一段380號"
  },
  {
    "name" : "全家員林正新店",
    "lng" : "120.582066",
    "lat" : "23.960645",
    "phone" : "04-8360774",
    "address" : "彰化縣員林鎮三民東街350號"
  },
  {
    "name" : "全家員林新員農店 ",
    "lng" : "120.581520",
    "lat" : "23.955474",
    "phone" : "04-8331925 ",
    "address" : "彰化縣員林鎮員水路二段320號"
  },
  {
    "name" : "全家鹿港車站店",
    "lng" : "120.434720",
    "lat" : "24.056569",
    "phone" : "04-7740452",
    "address" : "彰化縣鹿港鎮民權路202號"
  },
  {
    "name" : "全家鹿港受益店 ",
    "lng" : "120.442530",
    "lat" : "24.056468",
    "phone" : "04-7840880",
    "address" : "彰化縣鹿港鎮鹿東路150號"
  },
  {
    "name" : "全家溪湖雙溪店",
    "lng" : "120.480357",
    "lat" : "23.950888",
    "phone" : "04-8851178",
    "address" : "彰化縣溪湖鎮大竹里彰水路二段745號"
  },
  {
    "name" : "全家彰化溪湖店",
    "lng" : "120.481702",
    "lat" : "23.963741",
    "phone" : "04-8817134",
    "address" : "彰化縣溪湖鎮大溪路二段404號"
  },
  {
    "name" : "全家彰化新三民店",
    "lng" : "120.543884",
    "lat" : "24.085542",
    "phone" : "04-7280542",
    "address" : "彰化縣彰化市三民路270號"
  },
  {
    "name" : "全家彰化珍埔店",
    "lng" : "120.543883",
    "lat" : "24.062981",
    "phone" : "04-7114881",
    "address" : "彰化縣彰化市大埔路406號"
  },
  {
    "name" : "全家彰化新再旺店 ",
    "lng" : "120.540025",
    "lat" : "24.075747",
    "phone" : "04-7289800 ",
    "address" : "彰化縣彰化市民族路439號"
  },
  {
    "name" : "全家彰化林森店 ",
    "lng" : "120.526681",
    "lat" : "24.073328",
    "phone" : "04-7638790 ",
    "address" : "彰化縣彰化市林森路201號"
  },
  {
    "name" : "全家福興福利店",
    "lng" : "120.486506",
    "lat" : "24.012159",
    "phone" : "04-7697552",
    "address" : "彰化縣福興鄉彰水路52號"
  }
]