[
 
  {
    "name" : "全家台南中山店",
    "lng" : "120.209985",
    "lat" : "22.995933",
    "phone" : "06-2262010",
    "address" : "台南市中西區中山路139號"
  },
  {
    "name" : "全家台南赤崁店",
    "lng" : "120.204157",
    "lat" : "22.996180",
    "phone" : "06-2216207",
    "address" : "台南市中西區民族路二段257號"
  },
  {
    "name" : "全家台南大豐店",
    "lng" : "120.185901",
    "lat" : "23.008763",
    "phone" : "06-2507706",
    "address" : "台南市北區中華北路一段80號"
  },
  {
    "name" : "全家台南長成店 ",
    "lng" : "120.203347",
    "lat" : "22.999132",
    "phone" : "06-2255085 ",
    "address" : "台南市北區成功路212號"
  },
  {
    "name" : "全家台南海安三店",
    "lng" : "120.197871",
    "lat" : "23.005643",
    "phone" : "06-2587936",
    "address" : "台南市北區海安路三段219巷5號"
  },
  {
    "name" : "全家永康大橋店",
    "lng" : "120.228012",
    "lat" : "23.019299",
    "phone" : "06-3039275",
    "address" : "台南市永康區大橋二街68號1樓"
  },
  {
    "name" : "全家永康東橋店",
    "lng" : "120.230704",
    "lat" : "23.013482",
    "phone" : "06-3027880",
    "address" : "台南市永康區中山南路237號"
  },
  {
    "name" : "全家永康福樂店",
    "lng" : "120.232941",
    "lat" : "23.008572",
    "phone" : "06-2039583",
    "address" : "台南市永康區中華二路270號"
  },
  {
    "name" : "全家永康龍橋店",
    "lng" : "120.264541",
    "lat" : "23.037724",
    "phone" : "06-2029670",
    "address" : "台南市永康區自強路830號"
  },
  {
    "name" : "全家永康復華店",
    "lng" : "120.244832",
    "lat" : "23.015100",
    "phone" : "06-2036243",
    "address" : "台南市永康區復國一路477號1樓"
  },
  {
    "name" : "全家白河新興店 ",
    "lng" : "120.416693",
    "lat" : "23.352823",
    "phone" : "06-6859385",
    "address" : "台南市白河區新興路507號"
  },
  {
    "name" : "全家台南建平店 ",
    "lng" : "120.181103",
    "lat" : "22.982881",
    "phone" : "06-2992938",
    "address" : "台南市安平區健康路三段10號"
  },
  {
    "name" : "全家安定海寮店 ",
    "lng" : "120.210695",
    "lat" : "23.097811",
    "phone" : "06-5933959 ",
    "address" : "台南市安定區海寮10-2號"
  },
  {
    "name" : "全家安定港口店",
    "lng" : "120.205618",
    "lat" : "23.084733",
    "phone" : "06-5939547",
    "address" : "台南市安定區港口路244之28號"
  },
  {
    "name" : "全家台南安慶店",
    "lng" : "120.190500",
    "lat" : "23.040570",
    "phone" : "06-2474770",
    "address" : "台南市安南區大安街728號"
  },
  {
    "name" : "全家台南安北店",
    "lng" : "120.202770",
    "lat" : "23.038574",
    "phone" : "06-2564100",
    "address" : "台南市安南區北安路二段660號"
  },
  {
    "name" : "全家台南安和店",
    "lng" : "120.217279",
    "lat" : "23.067292",
    "phone" : "06-3564701",
    "address" : "台南市安南區安和路五段230號"
  },
  {
    "name" : "全家佳里新平店 ",
    "lng" : "120.178215",
    "lat" : "23.160800",
    "phone" : "06-7237050 ",
    "address" : "台南市佳里區延平路267號"
  },
  {
    "name" : "全家台南府城店 ",
    "lng" : "120.237312",
    "lat" : "22.976135",
    "phone" : "06-3366424 ",
    "address" : "台南市東區東門路三段293號"
  },
  {
    "name" : "全家台南榮寶店",
    "lng" : "120.218660",
    "lat" : "22.985750",
    "phone" : "06-2363772",
    "address" : "台南市東區長榮路一段236號"
  },
  {
    "name" : "全家台南崇德店 ",
    "lng" : "120.227609",
    "lat" : "22.968121",
    "phone" : "06-2673558 ",
    "address" : "台南市東區崇德路737號"
  },
  {
    "name" : "全家台南富農一店",
    "lng" : "120.235603",
    "lat" : "22.985065",
    "phone" : "06-3359083",
    "address" : "台南市東區富農街二段3號"
  },
  {
    "name" : "全家台南新富裕店",
    "lng" : "120.236357",
    "lat" : "22.988751",
    "phone" : "06-2753523",
    "address" : "台南市東區裕農路657號"
  },
  {
    "name" : "全家台南華興店 ",
    "lng" : "120.192428",
    "lat" : "22.961925",
    "phone" : "06-2921082 ",
    "address" : "台南市南區中華南路二段110號"
  },
  {
    "name" : "全家台南光明店",
    "lng" : "120.187265",
    "lat" : "22.974542",
    "phone" : "06-2636865",
    "address" : "台南市南區新興路523號"
  },
  {
    "name" : "全家台南永寧店",
    "lng" : "120.182073",
    "lat" : "22.926818",
    "phone" : "06-2627520",
    "address" : "台南市南區灣裡路278號"
  },
  {
    "name" : "全家新營國道南店",
    "lng" : "120.307157",
    "lat" : "23.340905",
    "phone" : "06-6328428",
    "address" : "台南市後壁區竹新里新厝69號"
  },
  {
    "name" : "全家新營國道北店",
    "lng" : "120.307157",
    "lat" : "23.340905",
    "phone" : "06-6321336",
    "address" : "台南市後壁區竹新里新厝72號"
  },
  {
    "name" : "全家麻豆興中店 ",
    "lng" : "120.257581",
    "lat" : "23.183568",
    "phone" : "06-5711047 ",
    "address" : "台南市麻豆區興中路228號"
  },
  {
    "name" : "全家麻豆興民店",
    "lng" : "120.249679",
    "lat" : "23.183776",
    "phone" : "06-5711224",
    "address" : "台南市麻豆區興中路51號"
  },
  {
    "name" : "全家善化和平店",
    "lng" : "120.298050",
    "lat" : "23.132195",
    "phone" : "06-5852942",
    "address" : "台南市善化區中山路231之6號1樓"
  },
  {
    "name" : "全家新化新北店",
    "lng" : "120.305009",
    "lat" : "23.042518",
    "phone" : "06-5987546",
    "address" : "台南市新化區中正路697號"
  },
  {
    "name" : "全家新市丹海店",
    "lng" : "120.291682",
    "lat" : "23.078052",
    "phone" : "06-5892640",
    "address" : "台南市新市區中正路239號"
  },
  {
    "name" : "全家新市車站店",
    "lng" : "120.307358",
    "lat" : "23.036029",
    "phone" : "06-5890641",
    "address" : "台南市新市區新和里中山路272號"
  },
  {
    "name" : "全家新營大同店",
    "lng" : "120.322342",
    "lat" : "23.310977",
    "phone" : "06-6371431",
    "address" : "台南市新營區大同路45號"
  },
  {
    "name" : "全家新營民興店",
    "lng" : "120.308684",
    "lat" : "23.309707",
    "phone" : "06-6592241",
    "address" : "台南市新營區民治路122號"
  },
  {
    "name" : "全家學甲安得富店 ",
    "lng" : "120.182583",
    "lat" : "23.231320",
    "phone" : "06-7839207",
    "address" : "台南市學甲區華宗路328號"
  },
  {
    "name" : "全家歸仁文仁店 ",
    "lng" : "120.292528",
    "lat" : "22.969639",
    "phone" : "06-3307920 ",
    "address" : "台南市歸仁區民族北街85號"
  },
  {
    "name" : "全家關廟英雄店",
    "lng" : "120.331498",
    "lat" : "22.950741",
    "phone" : "06-5951217",
    "address" : "台南市關廟區南雄路一段1133號"
  },
  {
    "name" : "全家鹽水武廟店",
    "lng" : "120.262917",
    "lat" : "23.324315",
    "phone" : "06-6524945",
    "address" : "台南市鹽水區金和路2號"
  }
]