[
  {
    "name" : "益民門市",
    "lng" : "120.675050",
    "lat" : "24.111551",
    "phone" : "(04)24815624 ",
    "address" : "台中市大里區東興里10鄰大明路238號"
  },
  {
    "name" : "美群門市",
    "lng" : "120.708230",
    "lat" : "24.085405",
    "phone" : "(04)24950645 ",
    "address" : "台中市大里區美群路60號"
  },
  {
    "name" : "鑫華新門市",
    "lng" : "120.675056",
    "lat" : "24.143739",
    "phone" : "(04)22293905 ",
    "address" : "台中市中區中華里中華路一段75號77號及民族路218號"
  },
  {
    "name" : "新大億門市",
    "lng" : "120.733421",
    "lat" : "24.155061",
    "phone" : "(04)23917413 ",
    "address" : "台中市太平區大興路151號151-1號"
  },
  {
    "name" : "功興門市",
    "lng" : "120.724468",
    "lat" : "24.130118",
    "phone" : "(04)22769121 ",
    "address" : "台中市太平區建興路47號"
  },
  {
    "name" : "溪洲門市",
    "lng" : "120.714666",
    "lat" : "24.141092",
    "phone" : "(04)22795623 ",
    "address" : "台中市太平區新平路二段221號"
  },
  {
    "name" : "新象門市",
    "lng" : "120.664102",
    "lat" : "24.185980",
    "phone" : "(04)24261619 ",
    "address" : "台中市北屯區中清路106之10號11號1樓"
  },
  {
    "name" : "熱天門市",
    "lng" : "120.687012",
    "lat" : "24.169254",
    "phone" : "(04)22373652 ",
    "address" : "台中市北屯區天津路四段68號1樓"
  },
  {
    "name" : "昌鴻門市",
    "lng" : "120.675436",
    "lat" : "24.165471",
    "phone" : "(04)22990002 ",
    "address" : "台中市北區賴厝里山西路一段48號"
  },
  {
    "name" : "錦新門市",
    "lng" : "120.686736",
    "lat" : "24.153208",
    "phone" : "(04)22257113 ",
    "address" : "台中市北區錦新街70-2號70-3號及一中街136-2號136-6號"
  },
  {
    "name" : "后糖門市",
    "lng" : "120.651900",
    "lat" : "24.333107",
    "phone" : "(04)25584498 ",
    "address" : "台中市后里區甲后路835號1樓"
  },
  {
    "name" : "逢廣門市",
    "lng" : "120.646367",
    "lat" : "24.183628",
    "phone" : "(04)24528846 ",
    "address" : "台中市西屯區文華路170號172號1樓"
  },
  {
    "name" : "逢喜門市",
    "lng" : "120.640856",
    "lat" : "24.176134",
    "phone" : "(04)27084476 ",
    "address" : "台中市西屯區逢甲路247號"
  },
  {
    "name" : "福康門市",
    "lng" : "120.616779",
    "lat" : "24.183736",
    "phone" : "(04)24638081 ",
    "address" : "台中市西屯區福林里福康路33號"
  },
  {
    "name" : "福星門市",
    "lng" : "120.646446",
    "lat" : "24.174995",
    "phone" : "(04)24519553 ",
    "address" : "台中市西屯區福星路580號"
  },
  {
    "name" : "明義門市",
    "lng" : "120.661792",
    "lat" : "24.154759",
    "phone" : "(04)23287885 ",
    "address" : "台中市西區美村路一段22號"
  },
  {
    "name" : "金典門市",
    "lng" : "120.662952",
    "lat" : "24.156572",
    "phone" : "(04)23265492 ",
    "address" : "台中市西區健行路1046;1046之1號"
  },
  {
    "name" : "童醫門市",
    "lng" : "120.561474",
    "lat" : "24.242716",
    "phone" : "(04)26624967 ",
    "address" : "台中市沙鹿區成功東街1號"
  },
  {
    "name" : "惠文門市",
    "lng" : "120.636325",
    "lat" : "24.154616",
    "phone" : "(04)22546680 ",
    "address" : "台中市南屯區河南路四段226號228號1樓"
  },
  {
    "name" : "精田門市",
    "lng" : "120.626540",
    "lat" : "24.115249",
    "phone" : "(04)24700590 ",
    "address" : "台中市南屯區黎明路一段142號"
  },
  {
    "name" : "興大門市",
    "lng" : "120.679577",
    "lat" : "24.122281",
    "phone" : "(04)22814276 ",
    "address" : "台中市南區國光路301號"
  },
  {
    "name" : "吉宏門市",
    "lng" : "120.634162",
    "lat" : "24.108092",
    "phone" : "(04)23370994 ",
    "address" : "台中市烏日區九德里20鄰中華路593號"
  },
  {
    "name" : "烏日門市",
    "lng" : "120.624612",
    "lat" : "24.104193",
    "phone" : "(04)23362682 ",
    "address" : "台中市烏日區新興路247號"
  },
  {
    "name" : "倍沅門市",
    "lng" : "120.686971",
    "lat" : "24.247008",
    "phone" : "(04)25633834 ",
    "address" : "台中市神岡區中山路473號"
  },
  {
    "name" : "鑫和睦門市",
    "lng" : "120.657513",
    "lat" : "24.270949",
    "phone" : "(04)25625741 ",
    "address" : "台中市神岡區神清路266號268號及福成路56-1號"
  },
  {
    "name" : "港區門市",
    "lng" : "120.528132",
    "lat" : "24.253101",
    "phone" : "(04)26580687 ",
    "address" : "台中市梧棲區安仁里文化路二段2鄰55號1樓"
  },
  {
    "name" : "昌興門市",
    "lng" : "120.577364",
    "lat" : "24.269829",
    "phone" : "(04)26222843 ",
    "address" : "台中市清水區新興路238號文昌街12-1號"
  },
  {
    "name" : "潭豐門市",
    "lng" : "120.686748",
    "lat" : "24.210293",
    "phone" : "(04)25355870 ",
    "address" : "台中市潭子區崇德路四段250之1號"
  },
  {
    "name" : "潭寶門市",
    "lng" : "120.703541",
    "lat" : "24.211594",
    "phone" : "(04)25357382 ",
    "address" : "台中市潭子區潭興路三段51號"
  },
  {
    "name" : "豐三民門市",
    "lng" : "120.722027",
    "lat" : "24.254127",
    "phone" : "(04)25220935",
    "address" : "台中市豐原區三民路38號1樓"
  }
]