[
  {
    "name" : "觀園門市",
    "lng" : "121.175609",
    "lat" : "25.062222",
    "phone" : "(03)3854111 ",
    "address" : "桃園縣大園鄉大觀路604號606號"
  },
  {
    "name" : "來來門市",
    "lng" : "121.225465",
    "lat" : "24.956368",
    "phone" : "(03)4251211 ",
    "address" : "桃園縣中壢市中央東路62號"
  },
  {
    "name" : "成龍門市",
    "lng" : "121.233970",
    "lat" : "24.935387",
    "phone" : "(03)4574296 ",
    "address" : "桃園縣中壢市振興里20鄰龍岡路三段192號194號"
  },
  {
    "name" : "新福街門市",
    "lng" : "121.231666",
    "lat" : "24.967562",
    "phone" : "(03)4553072 ",
    "address" : "桃園縣中壢市福州二街392號1樓"
  },
  {
    "name" : "新壢智門市",
    "lng" : "121.262643",
    "lat" : "24.967354",
    "phone" : "(03)2854198 ",
    "address" : "桃園縣中壢市興仁路二段57號1樓"
  },
  {
    "name" : "龍學門市",
    "lng" : "121.249500",
    "lat" : "24.937450",
    "phone" : "(03)4655821 ",
    "address" : "桃園縣中壢市龍昌路178號1樓A1"
  },
  {
    "name" : "比利門市",
    "lng" : "121.206298",
    "lat" : "24.914752",
    "phone" : "(03)4396297 ",
    "address" : "桃園縣平鎮市上海路161號"
  },
  {
    "name" : "學央門市",
    "lng" : "121.190853",
    "lat" : "24.965571",
    "phone" : "(03)4205014 ",
    "address" : "桃園縣平鎮市中央路187號"
  },
  {
    "name" : "鎮光門市",
    "lng" : "121.210674",
    "lat" : "24.896570",
    "phone" : "(03)4192232 ",
    "address" : "桃園縣平鎮市湧光里中豐路山頂段206號208號之1樓"
  },
  {
    "name" : "假日門市",
    "lng" : "121.318289",
    "lat" : "25.013111",
    "phone" : "(03)3568448 ",
    "address" : "桃園縣桃園市大有路560號1樓"
  },
  {
    "name" : "世貿門市",
    "lng" : "121.298763",
    "lat" : "25.015609",
    "phone" : "　",
    "address" : "桃園縣桃園市中正路1087號1樓"
  },
  {
    "name" : "雙慶門市",
    "lng" : "121.291912",
    "lat" : "25.018424",
    "phone" : "(03)3013836 ",
    "address" : "桃園縣桃園市安慶街84號86號"
  },
  {
    "name" : "紅蕃茄門市",
    "lng" : "121.314244",
    "lat" : "24.990804",
    "phone" : "(03)3362103 ",
    "address" : "桃園縣桃園市復興路83號85號"
  },
  {
    "name" : "新屋門市",
    "lng" : "121.099710",
    "lat" : "24.973494",
    "phone" : "(03)4772056 ",
    "address" : "桃園縣新屋鄉新生村12鄰中山路367號369號371號"
  },
  {
    "name" : "水龍吟門市",
    "lng" : "121.199149",
    "lat" : "24.848010",
    "phone" : "(03)4117393 ",
    "address" : "桃園縣龍潭鄉中原路一段506號1樓"
  },
  {
    "name" : "同銘門市",
    "lng" : "121.344126",
    "lat" : "24.990595",
    "phone" : "(03)3595385 ",
    "address" : "桃園縣龜山鄉大同路212號1樓"
  },
  {
    "name" : "鑫華夏門市",
    "lng" : "121.364469",
    "lat" : "25.060618",
    "phone" : "(03)2115130 ",
    "address" : "桃園縣龜山鄉文化二路28-1號28-2號28-3號1樓"
  },
  {
    "name" : "廣智門市",
    "lng" : "121.360485",
    "lat" : "25.054308",
    "phone" : "(03)3180296 ",
    "address" : "桃園縣龜山鄉復興一路392-1號"
  },
  {
    "name" : "航竹門市",
    "lng" : "121.265735",
    "lat" : "25.019942",
    "phone" : "(03)3231007 ",
    "address" : "桃園縣蘆竹鄉大竹路408號"
  },
  {
    "name" : "航空門市",
    "lng" : "121.292270",
    "lat" : "25.047456",
    "phone" : "(03)3223603 ",
    "address" : "桃園縣蘆竹鄉中正路304號"
  },
  {
    "name" : "台茂城堡店門市",
    "lng" : "121.287707",
    "lat" : "25.053046",
    "phone" : "(03)2123583 ",
    "address" : "桃園縣蘆竹鄉南崁路一段112號2樓"
  }
]