[
  {
    "name" : "康樂門市",
    "lng" : "120.194729",
    "lat" : "22.994795",
    "phone" : "(06)2228184 ",
    "address" : "台南市中西區安海里康樂街223號1樓2樓"
  },
  {
    "name" : "南門城門市",
    "lng" : "120.204427",
    "lat" : "22.983764",
    "phone" : "(06)2147717 ",
    "address" : "台南市中西區南門路229號1樓"
  },
  {
    "name" : "南站門市",
    "lng" : "120.235517",
    "lat" : "22.920808",
    "phone" : "(06)3663985 ",
    "address" : "台南市仁德區中洲里中洲1-15號1樓"
  },
  {
    "name" : "北站門市",
    "lng" : "120.226501",
    "lat" : "22.918836",
    "phone" : "(06)2780853 ",
    "address" : "台南市仁德區中洲里中洲1-16號1樓"
  },
  {
    "name" : "和緯門市",
    "lng" : "120.206329",
    "lat" : "23.012312",
    "phone" : "(06)2830287 ",
    "address" : "台南市北區成功里和緯路二段252號"
  },
  {
    "name" : "臻品門市",
    "lng" : "120.236817",
    "lat" : "23.012576",
    "phone" : "(06)3026702 ",
    "address" : "台南市永康區三合里中山東路117號119號1樓"
  },
  {
    "name" : "新康華門市",
    "lng" : "120.227404",
    "lat" : "23.018767",
    "phone" : "(06)3036846 ",
    "address" : "台南市永康區大橋二街38號"
  },
  {
    "name" : "雙永門市",
    "lng" : "120.260593",
    "lat" : "23.017965",
    "phone" : "(06)2031437 ",
    "address" : "台南市永康區永大一路60號1樓"
  },
  {
    "name" : "豐平門市",
    "lng" : "120.163899",
    "lat" : "22.994243",
    "phone" : "(06)2999400 ",
    "address" : "台南市安平區平豐路430號1樓"
  },
  {
    "name" : "安高門市",
    "lng" : "120.232115",
    "lat" : "23.105891",
    "phone" : "(06)5976231 ",
    "address" : "台南市安定區港尾里港子尾37-28號"
  },
  {
    "name" : "城中門市",
    "lng" : "120.129724",
    "lat" : "23.062378",
    "phone" : "(06)2570930 ",
    "address" : "台南市安南區安中路六段599號601號"
  },
  {
    "name" : "新同安門市",
    "lng" : "120.188130",
    "lat" : "23.038757",
    "phone" : "(06)2461306 ",
    "address" : "台南市安南區理想里海佃路二段432號"
  },
  {
    "name" : "佳立門市",
    "lng" : "120.182310",
    "lat" : "23.162222",
    "phone" : "(06)7229051 ",
    "address" : "台南市佳里區新生東路1號1樓"
  },
  {
    "name" : "東山站門市",
    "lng" : "120.402170",
    "lat" : "23.322136",
    "phone" : "(06)6234071 ",
    "address" : "台南市東山區科里里枋子林74-6號"
  },
  {
    "name" : "北門門市",
    "lng" : "120.212095",
    "lat" : "22.996319",
    "phone" : "(06)2292308 ",
    "address" : "台南市東區北門路一段310號"
  },
  {
    "name" : "國宅門市",
    "lng" : "120.189720",
    "lat" : "22.975003",
    "phone" : "(06)2917993 ",
    "address" : "台南市南區新興路441號"
  },
  {
    "name" : "新麻豆門市",
    "lng" : "120.250000",
    "lat" : "23.183333",
    "phone" : "(06)5717493 ",
    "address" : "台南市麻豆區榖興里11鄰中山路11號"
  },
  {
    "name" : "新興運門市",
    "lng" : "120.309619",
    "lat" : "23.036130",
    "phone" : "(06)5800340 ",
    "address" : "台南市新化區護國里中山路211號"
  },
  {
    "name" : "高長門市",
    "lng" : "120.293459",
    "lat" : "23.075690",
    "phone" : "(06)5012170 ",
    "address" : "台南市新市區新和里仁愛街171號"
  },
  {
    "name" : "新北門市",
    "lng" : "120.304373",
    "lat" : "23.308012",
    "phone" : "(06)6564239 ",
    "address" : "台南市新營區民治路228號1樓"
  },
  {
    "name" : "豐生門市",
    "lng" : "120.329581",
    "lat" : "22.959416",
    "phone" : "(06)3308121 ",
    "address" : "台南市歸仁區看東里中山路一段305號"
  }
]