[
 
  {
    "name" : "全家南投中寮店",
    "lng" : "120.766596",
    "lat" : "23.879793",
    "phone" : "049-2692671",
    "address" : "南投縣中寮鄉永安街98號"
  },
  {
    "name" : "全家仁愛高山青店",
    "lng" : "121.142603",
    "lat" : "24.032198",
    "phone" : "049-2803863",
    "address" : "南投縣仁愛鄉信義巷34之6號"
  },
  {
    "name" : "全家名間金交流店",
    "lng" : "120.697342",
    "lat" : "23.847162",
    "phone" : "049-2731964",
    "address" : "南投縣名間鄉彰南路243號"
  },
  {
    "name" : "全家竹山前山店",
    "lng" : "120.679656",
    "lat" : "23.757545",
    "phone" : "049-2632088",
    "address" : "南投縣竹山鎮大明路461號"
  },
  {
    "name" : "全家竹山延和店 ",
    "lng" : "120.693644",
    "lat" : "23.761639",
    "phone" : "049-2630859",
    "address" : "南投縣竹山鎮集山路三段542號"
  },
  {
    "name" : "全家南投新村店",
    "lng" : "120.695114",
    "lat" : "23.944322",
    "phone" : "049-2339180",
    "address" : "南投縣南投市中正路330-6號"
  },
  {
    "name" : "全家南投康金店",
    "lng" : "120.685687",
    "lat" : "23.911087",
    "phone" : "049-2247360",
    "address" : "南投縣南投市復興路342號"
  },
  {
    "name" : "全家埔里金車店 ",
    "lng" : "120.964688",
    "lat" : "23.969075",
    "phone" : "049-2996831",
    "address" : "南投縣埔里鎮中正路534號"
  },
  {
    "name" : "全家埔里枇杷店",
    "lng" : "120.973782",
    "lat" : "23.960391",
    "phone" : "049-2986650",
    "address" : "南投縣埔里鎮中華路1-1號"
  },
  {
    "name" : "全家草屯福美店 ",
    "lng" : "120.685181",
    "lat" : "23.978151",
    "phone" : "049-2356165",
    "address" : "南投縣草屯鎮碧山路78之2號"
  },
  {
    "name" : "全家魚池水沙連店 ",
    "lng" : "120.938161",
    "lat" : "23.896613",
    "phone" : "049-2899432",
    "address" : "南投縣魚池鄉魚池街322號"
  },
  {
    "name" : "全家魚池伊達邵店 ",
    "lng" : "120.931232",
    "lat" : "23.847761",
    "phone" : "049-2850405",
    "address" : "南投縣魚池鄉義勇街55號"
  }
]