[
  {
    "name" : "全家芝玉店 ",
    "lng" : "121.537499",
    "lat" : "25.112386",
    "phone" : "02-28343943 ",
    "address" : "台北市士林區士東路266巷5弄16號"
  },
  {
    "name" : "全家華港店",
    "lng" : "121.520934",
    "lat" : "25.088406",
    "phone" : "02-28810722",
    "address" : "台北市士林區大南路231號"
  },
  {
    "name" : "全家新陽明店",
    "lng" : "121.523188",
    "lat" : "25.094546",
    "phone" : "02-28818262",
    "address" : "台北市士林區中正路329號"
  },
  {
    "name" : "全家士商店 ",
    "lng" : "121.517876",
    "lat" : "25.091744",
    "phone" : "02-28838435 ",
    "address" : "台北市士林區中正路503號"
  },
  {
    "name" : "全家天山店",
    "lng" : "121.533430",
    "lat" : "25.119755",
    "phone" : "02-28769215",
    "address" : "台北市士林區天母東路69巷11-9號"
  },
  {
    "name" : "全家大北店",
    "lng" : "121.526052",
    "lat" : "25.092324",
    "phone" : "02-28819255",
    "address" : "台北市士林區文林路320號"
  },
  {
    "name" : "全家德行店",
    "lng" : "121.528267",
    "lat" : "25.107906",
    "phone" : "02-28314191",
    "address" : "台北市士林區德行東路109巷3號"
  },
  {
    "name" : "全家東大店",
    "lng" : "121.545748",
    "lat" : "25.094415",
    "phone" : "02-28835919",
    "address" : "台北市士林區臨溪路70號"
  },
  {
    "name" : "全家永樂店",
    "lng" : "121.511266",
    "lat" : "25.060467",
    "phone" : "02-25529571",
    "address" : "台北市大同區延平北路二段260號"
  },
  {
    "name" : "全家日新店",
    "lng" : "121.518390",
    "lat" : "25.055002",
    "phone" : "02-25505051",
    "address" : "台北市大同區承德路二段41號1樓"
  },
  {
    "name" : "全家酒泉店 ",
    "lng" : "121.518416",
    "lat" : "25.071861",
    "phone" : "02-25929575 ",
    "address" : "台北市大同區庫倫街48-4號"
  },
  {
    "name" : "全家大安店",
    "lng" : "121.546064",
    "lat" : "25.044076",
    "phone" : "02-27117896",
    "address" : "台北市大安區大安路一段20號"
  },
  {
    "name" : "全家敦新店",
    "lng" : "121.549771",
    "lat" : "25.036959",
    "phone" : "02-27057671",
    "address" : "台北市大安區仁愛路四段112巷5號"
  },
  {
    "name" : "全家吉泰店",
    "lng" : "121.554562",
    "lat" : "25.036913",
    "phone" : "02-27001566",
    "address" : "台北市大安區仁愛路四段300巷11-1號"
  },
  {
    "name" : "全家華視店 ",
    "lng" : "121.556394",
    "lat" : "25.042938",
    "phone" : "02-27310238 ",
    "address" : "台北市大安區光復南路116巷26號"
  },
  {
    "name" : "全家敦安店",
    "lng" : "121.550372",
    "lat" : "25.033997",
    "phone" : "02-27019097",
    "address" : "台北市大安區安和路一段112巷27號"
  },
  {
    "name" : "全家安居店",
    "lng" : "121.553328",
    "lat" : "25.019647",
    "phone" : "02-27375452",
    "address" : "台北市大安區安居街76號"
  },
  {
    "name" : "全家龍普店",
    "lng" : "121.550567",
    "lat" : "25.040831",
    "phone" : "02-87733622",
    "address" : "台北市大安區忠孝東路四段170巷6弄2號"
  },
  {
    "name" : "全家和東店 ",
    "lng" : "121.541769",
    "lat" : "25.024896",
    "phone" : "02-27371371 ",
    "address" : "台北市大安區和平東路二段102-3號"
  },
  {
    "name" : "全家和新店",
    "lng" : "121.536332",
    "lat" : "25.025682",
    "phone" : "02-83691009",
    "address" : "台北市大安區和平東路二段22號"
  },
  {
    "name" : "全家師大店",
    "lng" : "121.528518",
    "lat" : "25.023355",
    "phone" : "02-23918196",
    "address" : "台北市大安區師大路79號"
  },
  {
    "name" : "全家興忠店 ",
    "lng" : "121.543481",
    "lat" : "25.039689",
    "phone" : "02-27419504 ",
    "address" : "台北市大安區復興南路一段200號"
  },
  {
    "name" : "全家忠孝店",
    "lng" : "121.548205",
    "lat" : "25.042712",
    "phone" : "02-27780668",
    "address" : "台北市大安區敦化南路一段190巷7號"
  },
  {
    "name" : "全家新遠企店 ",
    "lng" : "121.549163",
    "lat" : "25.025618",
    "phone" : "02-27323623 ",
    "address" : "台北市大安區敦化南路二段261號"
  },
  {
    "name" : "全家新生南路店",
    "lng" : "121.532939",
    "lat" : "25.034303",
    "phone" : "02-27035220",
    "address" : "台北市大安區新生南路一段163號"
  },
  {
    "name" : "全家濟南店",
    "lng" : "121.534321",
    "lat" : "25.040222",
    "phone" : "02-27783003",
    "address" : "台北市大安區濟南路三段17號"
  },
  {
    "name" : "全家羅中店",
    "lng" : "121.521944",
    "lat" : "25.028111",
    "phone" : "02-23924175",
    "address" : "台北市大安區羅斯福路二段17號"
  },
  {
    "name" : "全家新台大店",
    "lng" : "121.535281",
    "lat" : "25.017774",
    "phone" : "02-23688949",
    "address" : "台北市大安區羅斯福路四段1號第一學生活動中心"
  },
  {
    "name" : "全家直學店 ",
    "lng" : "121.546522",
    "lat" : "25.080777",
    "phone" : "02-25328364 ",
    "address" : "台北市中山區大直街11號"
  },
  {
    "name" : "全家永安店",
    "lng" : "121.549484",
    "lat" : "25.082860",
    "phone" : "02-25322254",
    "address" : "台北市中山區北安路630巷7號"
  },
  {
    "name" : "全家福泰店",
    "lng" : "121.524309",
    "lat" : "25.057881",
    "phone" : "02-25413026",
    "address" : "台北市中山區民生東路一段36號1樓"
  },
  {
    "name" : "全家江寧店 ",
    "lng" : "121.542658",
    "lat" : "25.062106",
    "phone" : "02-25171595 ",
    "address" : "台北市中山區民權東路三段64號"
  },
  {
    "name" : "全家光華店",
    "lng" : "121.532727",
    "lat" : "25.046997",
    "phone" : "02-25670175",
    "address" : "台北市中山區松江路24之1號"
  },
  {
    "name" : "全家金林店 ",
    "lng" : "121.525138",
    "lat" : "25.050375",
    "phone" : "02-25629847 ",
    "address" : "台北市中山區林森北路109號"
  },
  {
    "name" : "全家錦林店",
    "lng" : "121.525877",
    "lat" : "25.059194",
    "phone" : "02-25239913",
    "address" : "台北市中山區林森北路399巷10號"
  },
  {
    "name" : "全家新林森店",
    "lng" : "121.525612",
    "lat" : "25.067563",
    "phone" : "02-25977209",
    "address" : "台北市中山區林森北路630號"
  },
  {
    "name" : "全家遼寧店 ",
    "lng" : "121.542432",
    "lat" : "25.048172",
    "phone" : "02-27405515 ",
    "address" : "台北市中山區長安東路二段216號"
  },
  {
    "name" : "全家新復店",
    "lng" : "121.542715",
    "lat" : "25.066092",
    "phone" : "02-25097685",
    "address" : "台北市中山區復興北路514巷35號"
  },
  {
    "name" : "全家撫順店",
    "lng" : "121.520907",
    "lat" : "25.063489",
    "phone" : "02-25927495",
    "address" : "台北市中山區撫順街12之2號"
  },
  {
    "name" : "全家興安店",
    "lng" : "121.542390",
    "lat" : "25.056234",
    "phone" : "02-25052013",
    "address" : "台北市中山區興安街57號"
  },
  {
    "name" : "全家和醫店",
    "lng" : "121.507691",
    "lat" : "25.035307",
    "phone" : "02-23122560",
    "address" : "台北市中正區延平南路159號"
  },
  {
    "name" : "全家南海店",
    "lng" : "121.516881",
    "lat" : "25.032422",
    "phone" : "02-23564283",
    "address" : "台北市中正區南海路20號"
  },
  {
    "name" : "全家重慶店",
    "lng" : "121.513078",
    "lat" : "25.043903",
    "phone" : "02-23122797",
    "address" : "台北市中正區重慶南路一段58號"
  },
  {
    "name" : "全家齊東店",
    "lng" : "121.526570",
    "lat" : "25.041593",
    "phone" : "02-23942076",
    "address" : "台北市中正區濟南路二段3-7號"
  },
  {
    "name" : "全家碧湖店",
    "lng" : "121.573352",
    "lat" : "25.080937",
    "phone" : "02-26277149",
    "address" : "台北市內湖區內湖路一段593號"
  },
  {
    "name" : "全家內華店",
    "lng" : "121.590360",
    "lat" : "25.068936",
    "phone" : "02-27911354",
    "address" : "台北市內湖區民權東路六段162號"
  },
  {
    "name" : "全家三民店 ",
    "lng" : "121.586097",
    "lat" : "25.068754",
    "phone" : "02-27942827 ",
    "address" : "台北市內湖區民權東路六段90巷1號"
  },
  {
    "name" : "全家新東湖店",
    "lng" : "121.614202",
    "lat" : "25.069172",
    "phone" : "02-26317679 ",
    "address" : "台北市內湖區東湖路43巷4號"
  },
  {
    "name" : "全家金瑞店 ",
    "lng" : "121.586718",
    "lat" : "25.088270",
    "phone" : "02-27934276 ",
    "address" : "台北市內湖區金龍路224號"
  },
  {
    "name" : "全家新湖店",
    "lng" : "121.582611",
    "lat" : "25.064840",
    "phone" : "02-27937065",
    "address" : "台北市內湖區新湖二路250巷8號"
  },
  {
    "name" : "全家瑞光店",
    "lng" : "121.567672",
    "lat" : "25.079481",
    "phone" : "02-87514993",
    "address" : "台北市內湖區瑞光路510號1樓"
  },
  {
    "name" : "全家環山店",
    "lng" : "121.565646",
    "lat" : "25.082821",
    "phone" : "02-26271008 ",
    "address" : "台北市內湖區環山路一段5號"
  },
  {
    "name" : "全家木康店 ",
    "lng" : "121.566287",
    "lat" : "24.988650",
    "phone" : "02-29399685",
    "address" : "台北市文山區木柵路三段53號"
  },
  {
    "name" : "全家鑫順店 ",
    "lng" : "121.562691",
    "lat" : "24.984591",
    "phone" : "02-29370174 ",
    "address" : "台北市文山區忠順街二段16號"
  },
  {
    "name" : "全家文華店",
    "lng" : "121.541652",
    "lat" : "24.995203",
    "phone" : "02-86633877",
    "address" : "台北市文山區景華街3巷2號"
  },
  {
    "name" : "全家興政店",
    "lng" : "121.575200",
    "lat" : "24.987864",
    "phone" : "02-86619335",
    "address" : "台北市文山區指南路二段83號"
  },
  {
    "name" : "全家新和店",
    "lng" : "121.495180",
    "lat" : "25.145101",
    "phone" : "02-28912821 ",
    "address" : "台北市北投區中和街489號"
  },
  {
    "name" : "全家榮光店",
    "lng" : "121.515118",
    "lat" : "25.112436",
    "phone" : "02-28217765",
    "address" : "台北市北投區石牌路一段166巷93號"
  },
  {
    "name" : "全家新知行店",
    "lng" : "121.466999",
    "lat" : "25.120461",
    "phone" : "02-28586738 ",
    "address" : "台北市北投區知行路237號"
  },
  {
    "name" : "全家鑫德店    ",
    "lng" : "121.546587",
    "lat" : "25.048019",
    "phone" : "02-87717609",
    "address" : "台北市松山區八德路二段400號"
  },
  {
    "name" : "全家慶城店",
    "lng" : "121.544857",
    "lat" : "25.052626",
    "phone" : "02-25464461",
    "address" : "台北市松山區中正里慶城街8號"
  },
  {
    "name" : "全家北權店",
    "lng" : "121.544971",
    "lat" : "25.060256",
    "phone" : "02-25469055",
    "address" : "台北市松山區民權東路三段106巷11號"
  },
  {
    "name" : "全家昇東店",
    "lng" : "121.565981",
    "lat" : "25.059196",
    "phone" : "02-27491649 ",
    "address" : "台北市松山區民生東路五段197號"
  },
  {
    "name" : "全家大盛店",
    "lng" : "121.560506",
    "lat" : "25.050784",
    "phone" : "02-27650089",
    "address" : "台北市松山區南京東路五段66巷2弄1-1號"
  },
  {
    "name" : "全家新健康店 ",
    "lng" : "121.555252",
    "lat" : "25.053255",
    "phone" : "02-25462607 ",
    "address" : "台北市松山區南京東路四段133巷9弄2號"
  },
  {
    "name" : "全家松醫店 ",
    "lng" : "121.557876",
    "lat" : "25.053406",
    "phone" : "02-27600199 ",
    "address" : "台北市松山區健康路158號"
  },
  {
    "name" : "全家宏大店",
    "lng" : "121.549824",
    "lat" : "25.054199",
    "phone" : "02-27183704",
    "address" : "台北市松山區敦化北路155巷3號"
  },
  {
    "name" : "全家松航店",
    "lng" : "121.551881",
    "lat" : "25.063677",
    "phone" : "02-25459405",
    "address" : "台北市松山區敦化北路340之9號"
  },
  {
    "name" : "全家新東店",
    "lng" : "121.566165",
    "lat" : "25.057834",
    "phone" : "02-27653580",
    "address" : "台北市松山區新東街14號"
  },
  {
    "name" : "全家金融店 ",
    "lng" : "121.564101",
    "lat" : "25.033493",
    "phone" : "02-81018013",
    "address" : "台北市信義區市府路45號"
  },
  {
    "name" : "全家永吉二店",
    "lng" : "121.574138",
    "lat" : "25.045714",
    "phone" : "02-27491648",
    "address" : "台北市信義區永吉路223號"
  },
  {
    "name" : "全家光復南路店",
    "lng" : "121.557677",
    "lat" : "25.035178",
    "phone" : "02-27294291",
    "address" : "台北市信義區光復南路447-2號"
  },
  {
    "name" : "全家北醫店 ",
    "lng" : "121.563876",
    "lat" : "25.026999",
    "phone" : "02-27229824 ",
    "address" : "台北市信義區吳興街263號"
  },
  {
    "name" : "全家三興店",
    "lng" : "121.559465",
    "lat" : "25.031678",
    "phone" : "02-27232796",
    "address" : "台北市信義區吳興街7號"
  },
  {
    "name" : "全家聯合店",
    "lng" : "121.563490",
    "lat" : "25.042370",
    "phone" : "02-27685432",
    "address" : "台北市信義區忠孝東路四段553巷6弄17號"
  },
  {
    "name" : "全家松站店",
    "lng" : "121.579301",
    "lat" : "25.048545",
    "phone" : "02-27678206",
    "address" : "台北市信義區松隆路329巷8號"
  },
  {
    "name" : "全家永隆店",
    "lng" : "121.566194",
    "lat" : "25.042521",
    "phone" : "02-27678120",
    "address" : "台北市信義區基隆路一段147巷7號"
  },
  {
    "name" : "全家崇德店",
    "lng" : "121.553759",
    "lat" : "25.024364",
    "phone" : "02-27333493",
    "address" : "台北市信義區崇德街29號"
  },
  {
    "name" : "全家新成鑫店 ",
    "lng" : "121.584311",
    "lat" : "25.044350",
    "phone" : "02-27853529",
    "address" : "台北市南港區玉成街176巷1號"
  },
  {
    "name" : "全家新昆陽店 ",
    "lng" : "121.594268",
    "lat" : "25.050131",
    "phone" : "02-27883495 ",
    "address" : "台北市南港區昆陽街145號"
  },
  {
    "name" : "全家工業二店 ",
    "lng" : "121.612330",
    "lat" : "25.058864",
    "phone" : "02-26558763",
    "address" : "台北市南港區園區街3號"
  },
  {
    "name" : "全家興華店",
    "lng" : "121.605645",
    "lat" : "25.055932",
    "phone" : "02-27834076 ",
    "address" : "台北市南港區興華路86號"
  },
  {
    "name" : "全家和西店",
    "lng" : "121.494573",
    "lat" : "25.035087",
    "phone" : "02-23080749",
    "address" : "台北市萬華區和平西路三段290-5號"
  },
  {
    "name" : "全家成都店",
    "lng" : "121.504717",
    "lat" : "25.042914",
    "phone" : "02-23758507 ",
    "address" : "台北市萬華區昆明街134號"
  },
  {
    "name" : "全家東園店",
    "lng" : "121.496512",
    "lat" : "25.026049",
    "phone" : "02-23327420",
    "address" : "台北市萬華區東園街69之171號"
  },
  {
    "name" : "全家公園店 ",
    "lng" : "121.504050",
    "lat" : "25.025485",
    "phone" : "02-23051904 ",
    "address" : "台北市萬華區青年路48號"
  },
  {
    "name" : "全家桂林店",
    "lng" : "121.505332",
    "lat" : "25.037919",
    "phone" : "02-23318161",
    "address" : "台北市萬華區桂林路23號"
  },
  {
    "name" : "全家廣州店",
    "lng" : "121.498491",
    "lat" : "25.036815",
    "phone" : "02-23087040",
    "address" : "台北市萬華區廣州街237號"
  },
  {
    "name" : "全家環南店 ",
    "lng" : "121.490710",
    "lat" : "25.031562",
    "phone" : "02-23026891 ",
    "address" : "台北市萬華區環河南路二段298號"
  }
]