[
 
  {
    "name" : "全家新竹大竹店",
    "lng" : "120.956508",
    "lat" : "24.811606",
    "phone" : "03-5326698",
    "address" : "新竹市北區西大路848號"
  },
  {
    "name" : "全家新竹荷蘭村店",
    "lng" : "120.968444",
    "lat" : "24.821142",
    "phone" : "03-5451966",
    "address" : "新竹市北區武陵路175巷2號"
  },
  {
    "name" : "全家新竹大同店",
    "lng" : "120.969915",
    "lat" : "24.803146",
    "phone" : "03-5277520",
    "address" : "新竹市東區大同路16號"
  },
  {
    "name" : "全家新竹交大店 ",
    "lng" : "120.999645",
    "lat" : "24.789071",
    "phone" : "03-5739817 ",
    "address" : "新竹市東區大學路1001-2號"
  },
  {
    "name" : "全家新竹經華店",
    "lng" : "120.993971",
    "lat" : "24.816000",
    "phone" : "03-5341261",
    "address" : "新竹市東區中華路一段101號"
  },
  {
    "name" : "全家新竹竹科店",
    "lng" : "121.008255",
    "lat" : "24.779697",
    "phone" : "03-5770320",
    "address" : "新竹市東區竹村七路7號1樓"
  },
  {
    "name" : "全家新竹師苑店",
    "lng" : "120.962751",
    "lat" : "24.793109",
    "phone" : "03-5618432",
    "address" : "新竹市東區南大路636號"
  },
  {
    "name" : "全家新竹公學店",
    "lng" : "120.997022",
    "lat" : "24.801012",
    "phone" : "03-5748909",
    "address" : "新竹市東區建功一路99號"
  },
  {
    "name" : "全家新竹新民治店",
    "lng" : "121.010796",
    "lat" : "24.784630",
    "phone" : "03-6687741",
    "address" : "新竹市東區科園里8鄰科學園路88號1樓"
  },
  {
    "name" : "全家新竹翠峰店",
    "lng" : "120.983492",
    "lat" : "24.777108",
    "phone" : "03-6667396",
    "address" : "新竹市東區高翠路375號"
  },
  {
    "name" : "全家新竹中隘店 ",
    "lng" : "120.916199",
    "lat" : "24.731343",
    "phone" : "03-5181480 ",
    "address" : "新竹市香山區中華路六段667號"
  },
  {
    "name" : "全家新竹大庄店 ",
    "lng" : "120.927403",
    "lat" : "24.791897",
    "phone" : "03-5402252 ",
    "address" : "新竹市香山區香北路86號"
  }
]