[
 
  {
    "name" : "全家內埔光明店 ",
    "lng" : "120.568363",
    "lat" : "22.615462",
    "phone" : "08-7789851 ",
    "address" : "屏東縣內埔鄉光明路613號"
  },
  {
    "name" : "全家里港永樂店",
    "lng" : "120.492871",
    "lat" : "22.777236",
    "phone" : "08-7756890",
    "address" : "屏東縣里港鄉永樂路4號"
  },
  {
    "name" : "全家東港東光店",
    "lng" : "120.459223",
    "lat" : "22.468892",
    "phone" : "08-",
    "address" : "屏東縣東港鎮長春二路206號"
  },
  {
    "name" : "全家東港碼頭店",
    "lng" : "120.445823",
    "lat" : "22.468124",
    "phone" : "08-8323947",
    "address" : "屏東縣東港鎮朝隆路6號"
  },
  {
    "name" : "全家長治繁華店",
    "lng" : "120.575589",
    "lat" : "22.702381",
    "phone" : "08-7620282",
    "address" : "屏東縣長治鄉中山路11-1號"
  },
  {
    "name" : "全家屏東大崇店",
    "lng" : "120.475295",
    "lat" : "22.681806",
    "phone" : "08-7327312",
    "address" : "屏東縣屏東市大同北路102號"
  },
  {
    "name" : "全家屏東大埔店",
    "lng" : "120.481260",
    "lat" : "22.670820",
    "phone" : "08-7326415",
    "address" : "屏東縣屏東市民族路303號1樓"
  },
  {
    "name" : "全家屏東中華店",
    "lng" : "120.493101",
    "lat" : "22.682446",
    "phone" : "08-7361342",
    "address" : "屏東縣屏東市自由路422號"
  },
  {
    "name" : "全家屏東瑞光店",
    "lng" : "120.510512",
    "lat" : "22.673733",
    "phone" : "08-7210590",
    "address" : "屏東縣屏東市瑞光路二段86號"
  },
  {
    "name" : "全家屏東福光店",
    "lng" : "120.491023",
    "lat" : "22.664579",
    "phone" : "08-7519167",
    "address" : "屏東縣屏東市廣東南路90號"
  },
  {
    "name" : "全家恆春熊貓店",
    "lng" : "120.745380",
    "lat" : "22.002572",
    "phone" : "08-8881638",
    "address" : "屏東縣恆春鎮中正路30號"
  },
  {
    "name" : "全家崁頂頂孝店 ",
    "lng" : "120.451364",
    "lat" : "22.468977",
    "phone" : "08-8635365",
    "address" : "屏東縣崁頂鄉中正路184號"
  },
  {
    "name" : "全家潮州福星店 ",
    "lng" : "120.543971",
    "lat" : "22.544996",
    "phone" : "08-7882133",
    "address" : "屏東縣潮洲鎮福星路353號1樓"
  }
]