[
 
  {
    "name" : "全家中埔中華店 ",
    "lng" : "120.457630",
    "lat" : "23.446218",
    "phone" : "05-2390438 ",
    "address" : "嘉義縣中埔鄉中華路678號"
  },
  {
    "name" : "全家太保嘉新店",
    "lng" : "120.377420",
    "lat" : "23.498854",
    "phone" : "05-2386407",
    "address" : "嘉義縣太保市中山路一段806號"
  },
  {
    "name" : "全家太保縣府店",
    "lng" : "120.293950",
    "lat" : "23.454386",
    "phone" : "05-3627137",
    "address" : "嘉義縣太保市祥和三路東段212號"
  },
  {
    "name" : "全家布袋上海店",
    "lng" : "120.160762",
    "lat" : "23.378968",
    "phone" : "05-3478805",
    "address" : "嘉義縣布袋鎮上海路211號"
  },
  {
    "name" : "全家民雄雙福店 ",
    "lng" : "120.437030",
    "lat" : "23.534065",
    "phone" : "05-2205479 ",
    "address" : "嘉義縣民雄鄉建國路二段80號"
  },
  {
    "name" : "全家民雄埤角店",
    "lng" : "120.446290",
    "lat" : "23.527976",
    "phone" : "05-2206503",
    "address" : "嘉義縣民雄鄉埤角106號"
  },
  {
    "name" : "全家朴子四海店 ",
    "lng" : "120.236570",
    "lat" : "23.463811",
    "phone" : "05-3707141",
    "address" : "嘉義縣朴子市應菜埔29之6號"
  }
]