[
  {
    "name" : "全家八里富塘店",
    "lng" : "121.397820",
    "lat" : "25.145496",
    "phone" : "02-86303914",
    "address" : "新北市八里區訊塘路62號"
  },
  {
    "name" : "全家三重福運店",
    "lng" : "121.486027",
    "lat" : "25.076753",
    "phone" : "02-22863881",
    "address" : "新北市三重區三和路四段250號"
  },
  {
    "name" : "全家三重大智店",
    "lng" : "121.493423",
    "lat" : "25.066325",
    "phone" : "02-29807923",
    "address" : "新北市三重區大智街94號"
  },
  {
    "name" : "全家三重興南店",
    "lng" : "121.501346",
    "lat" : "25.062969",
    "phone" : "02-29742923",
    "address" : "新北市三重區中央南路8號"
  },
  {
    "name" : "全家三重永泉店",
    "lng" : "121.478647",
    "lat" : "25.069610",
    "phone" : "02-89851924 ",
    "address" : "新北市三重區中正北路165巷12-1號"
  },
  {
    "name" : "全家三重新中正店",
    "lng" : "121.494374",
    "lat" : "25.056694",
    "phone" : "02-29761832",
    "address" : "新北市三重區中正南路178號"
  },
  {
    "name" : "全家三重永安店",
    "lng" : "121.482033",
    "lat" : "25.081327",
    "phone" : "02-28579121",
    "address" : "新北市三重區永安北路二段11號"
  },
  {
    "name" : "全家三重信安店 ",
    "lng" : "121.492238",
    "lat" : "25.070222",
    "phone" : "02-29878001",
    "address" : "新北市三重區重陽路四段55號"
  },
  {
    "name" : "全家三重天台店",
    "lng" : "121.497226",
    "lat" : "25.061916",
    "phone" : "02-29744755",
    "address" : "新北市三重區重新路二段78號"
  },
  {
    "name" : "全家三重湯城店",
    "lng" : "121.467707",
    "lat" : "25.046116",
    "phone" : "02-29992495",
    "address" : "新北市三重區重新路五段609巷14號"
  },
  {
    "name" : "全家三重頂崁店",
    "lng" : "121.475622",
    "lat" : "25.068308",
    "phone" : "02-29809001",
    "address" : "新北市三重區頂崁街210巷31號"
  },
  {
    "name" : "全家三重龍明店",
    "lng" : "121.501342",
    "lat" : "25.072566",
    "phone" : "02-29781104",
    "address" : "新北市三重區龍濱路168號"
  },
  {
    "name" : "全家三峽三樹店",
    "lng" : "121.378903",
    "lat" : "24.940616",
    "phone" : "02-26739736",
    "address" : "新北市三峽區三樹路257號"
  },
  {
    "name" : "全家三峽大寧店",
    "lng" : "121.374925",
    "lat" : "24.943403",
    "phone" : "02-86722270",
    "address" : "新北市三峽區大學路125號1樓"
  },
  {
    "name" : "全家三峽大同店",
    "lng" : "121.375953",
    "lat" : "24.927840",
    "phone" : "02-86742229",
    "address" : "新北市三峽區光明路100-6號"
  },
  {
    "name" : "全家土城新德店 ",
    "lng" : "121.444317",
    "lat" : "24.984805",
    "phone" : "02-22644631 ",
    "address" : "新北市土城區中央路一段248-2號"
  },
  {
    "name" : "全家土城大安店",
    "lng" : "121.431061",
    "lat" : "24.964858",
    "phone" : "02-22690923",
    "address" : "新北市土城區中央路三段187號"
  },
  {
    "name" : "全家土城頂埔店",
    "lng" : "121.414782",
    "lat" : "24.956888",
    "phone" : "02-22674416",
    "address" : "新北市土城區中央路四段262號1樓"
  },
  {
    "name" : "全家土城新延店",
    "lng" : "121.469853",
    "lat" : "24.990168",
    "phone" : "　",
    "address" : "新北市土城區延和路207號1樓"
  },
  {
    "name" : "全家土城雲陽店 ",
    "lng" : "121.459400",
    "lat" : "24.982565",
    "phone" : "02-22740328 ",
    "address" : "新北市土城區青雲路185號"
  },
  {
    "name" : "全家土城新學店",
    "lng" : "121.452210",
    "lat" : "24.984952",
    "phone" : "02-82624507",
    "address" : "新北市土城區學府路一段187號"
  },
  {
    "name" : "全家中和漢陽店",
    "lng" : "121.472825",
    "lat" : "25.006471",
    "phone" : "02-22230343",
    "address" : "新北市中和區中山路三段172號"
  },
  {
    "name" : "全家中和中安店",
    "lng" : "121.511400",
    "lat" : "24.999194",
    "phone" : "02-29256006",
    "address" : "新北市中和區中安街192號"
  },
  {
    "name" : "全家中和廣場店",
    "lng" : "121.485981",
    "lat" : "24.997027",
    "phone" : "02-82278301",
    "address" : "新北市中和區平河里中正路712號1樓"
  },
  {
    "name" : "全家中和國院店 ",
    "lng" : "121.479498",
    "lat" : "24.999980",
    "phone" : "02-22213432 ",
    "address" : "新北市中和區民安街51號"
  },
  {
    "name" : "全家中和秀山店",
    "lng" : "121.520061",
    "lat" : "24.994193",
    "phone" : "02-89421005",
    "address" : "新北市中和區立人街65號"
  },
  {
    "name" : "全家中和安樂店",
    "lng" : "121.512783",
    "lat" : "24.994336",
    "phone" : "02-29400326",
    "address" : "新北市中和區安樂路81號"
  },
  {
    "name" : "全家中和和平店 ",
    "lng" : "121.508444",
    "lat" : "24.990801",
    "phone" : "02-29444304 ",
    "address" : "新北市中和區和平街56號1樓"
  },
  {
    "name" : "全家中和勝平店 ",
    "lng" : "121.499201",
    "lat" : "24.998749",
    "phone" : "02-22474417 ",
    "address" : "新北市中和區景平路519號"
  },
  {
    "name" : "全家中和景秀店",
    "lng" : "121.519272",
    "lat" : "24.991351",
    "phone" : "02-86680018",
    "address" : "新北市中和區景平路71-2號"
  },
  {
    "name" : "全家中和華夏店 ",
    "lng" : "121.506671",
    "lat" : "24.981939",
    "phone" : "02-29479070",
    "address" : "新北市中和區華新街202號"
  },
  {
    "name" : "全家中和華新店",
    "lng" : "121.507967",
    "lat" : "24.984386",
    "phone" : "02-29493985",
    "address" : "新北市中和區華新街55號"
  },
  {
    "name" : "全家中和圓通店",
    "lng" : "121.501185",
    "lat" : "24.997765",
    "phone" : "02-22454902",
    "address" : "新北市中和區圓通路27號"
  },
  {
    "name" : "全家中和民德店",
    "lng" : "121.466445",
    "lat" : "24.994431",
    "phone" : "02-29640401",
    "address" : "新北市中和區壽德里壽德街26號1樓"
  },
  {
    "name" : "全家中和福祥店",
    "lng" : "121.499548",
    "lat" : "25.003681",
    "phone" : "02-22428093",
    "address" : "新北市中和區福祥路30號"
  },
  {
    "name" : "全家中和南中店",
    "lng" : "121.503516",
    "lat" : "25.001870",
    "phone" : "02-22464585",
    "address" : "新北市中和區廣福路62號"
  },
  {
    "name" : "全家五股工商店 ",
    "lng" : "121.437221",
    "lat" : "25.085462",
    "phone" : "02-22933482 ",
    "address" : "新北市五股區工商路81號"
  },
  {
    "name" : "全家永和正新店",
    "lng" : "121.516895",
    "lat" : "24.998708",
    "phone" : "02-29464214",
    "address" : "新北市永和區中正路278號1樓"
  },
  {
    "name" : "全家永和大福店",
    "lng" : "121.485798",
    "lat" : "24.995351",
    "phone" : "02-29254322",
    "address" : "新北市永和區中正路610之1號"
  },
  {
    "name" : "全家永和永平店",
    "lng" : "121.508892",
    "lat" : "25.010950",
    "phone" : "02-86603548",
    "address" : "新北市永和區永平路232號"
  },
  {
    "name" : "全家永和永福店 ",
    "lng" : "121.513432",
    "lat" : "25.007628",
    "phone" : "02-29234354 ",
    "address" : "新北市永和區永和路一段93號"
  },
  {
    "name" : "全家永和秀成店",
    "lng" : "121.526879",
    "lat" : "25.001425",
    "phone" : "02-29215822",
    "address" : "新北市永和區成功路一段139號"
  },
  {
    "name" : "全家永和永林店 ",
    "lng" : "121.517865",
    "lat" : "25.014352",
    "phone" : "02-89274417 ",
    "address" : "新北市永和區竹林路37號"
  },
  {
    "name" : "全家汐止力行店",
    "lng" : "121.617374",
    "lat" : "25.051252",
    "phone" : "02-26401386",
    "address" : "新北市汐止區力行街1號"
  },
  {
    "name" : "全家汐止摩天店",
    "lng" : "121.683520",
    "lat" : "25.073535",
    "phone" : "02-26905548",
    "address" : "新北市汐止區大同路三段611-3號"
  },
  {
    "name" : "全家汐止鑫峰店",
    "lng" : "121.629302",
    "lat" : "25.070537",
    "phone" : "02-26953467",
    "address" : "新北市汐止區明峰街162號"
  },
  {
    "name" : "全家汐止莊敬店 ",
    "lng" : "121.654444",
    "lat" : "25.060785",
    "phone" : "02-26435764",
    "address" : "新北市汐止區莊敬街139號"
  },
  {
    "name" : "全家汐止亞太店",
    "lng" : "121.648379",
    "lat" : "25.060248",
    "phone" : "02-26969769",
    "address" : "新北市汐止區新台五路一段96號"
  },
  {
    "name" : "全家汐止福旺店",
    "lng" : "121.637229",
    "lat" : "25.067509",
    "phone" : "02-86933934",
    "address" : "新北市汐止區福德一路109號"
  },
  {
    "name" : "全家汐止新樹店",
    "lng" : "121.640888",
    "lat" : "25.068948",
    "phone" : "02-26487704",
    "address" : "新北市汐止區樟樹二路273號"
  },
  {
    "name" : "全家板橋振興店",
    "lng" : "121.481766",
    "lat" : "25.023359",
    "phone" : "02-89612085",
    "address" : "新北市板橋區三民路一段31巷89弄3號"
  },
  {
    "name" : "全家板橋富山店 ",
    "lng" : "121.479290",
    "lat" : "25.021646",
    "phone" : "02-89641541 ",
    "address" : "新北市板橋區三民路一段94號"
  },
  {
    "name" : "全家板橋長壽店",
    "lng" : "121.479372",
    "lat" : "25.016638",
    "phone" : "02-29572584",
    "address" : "新北市板橋區三民路二段83號"
  },
  {
    "name" : "全家板橋新光仁店",
    "lng" : "121.472620",
    "lat" : "25.015310",
    "phone" : "02-89538951",
    "address" : "新北市板橋區中山路二段25號1之5樓"
  },
  {
    "name" : "全家板橋大庭店",
    "lng" : "121.456435",
    "lat" : "25.017027",
    "phone" : "02-29670325",
    "address" : "新北市板橋區中正路191號"
  },
  {
    "name" : "全家板橋新民店 ",
    "lng" : "121.466795",
    "lat" : "25.019003",
    "phone" : "02-22570742 ",
    "address" : "新北市板橋區文化路一段188巷42號"
  },
  {
    "name" : "全家板橋新遠店 ",
    "lng" : "121.458297",
    "lat" : "24.999513",
    "phone" : "02-89539873 ",
    "address" : "新北市板橋區四川路一段371號"
  },
  {
    "name" : "全家板橋金巨蛋店 ",
    "lng" : "121.468642",
    "lat" : "25.023313",
    "phone" : "02-22573505 ",
    "address" : "新北市板橋區民生路二段250號"
  },
  {
    "name" : "全家板橋板農店",
    "lng" : "121.458589",
    "lat" : "25.008425",
    "phone" : "02-22723346",
    "address" : "新北市板橋區府中路29之1號1樓"
  },
  {
    "name" : "全家板橋松柏店",
    "lng" : "121.474234",
    "lat" : "25.029696",
    "phone" : "02-82520901",
    "address" : "新北市板橋區松柏街13號"
  },
  {
    "name" : "全家板橋金成店 ",
    "lng" : "121.429868",
    "lat" : "24.986281",
    "phone" : "02-26855676 ",
    "address" : "新北市板橋區金門街313號"
  },
  {
    "name" : "全家板橋信陽店",
    "lng" : "121.457392",
    "lat" : "24.993417",
    "phone" : "02-29506920",
    "address" : "新北市板橋區信義路72號"
  },
  {
    "name" : "全家板橋板慶店",
    "lng" : "121.461480",
    "lat" : "24.998657",
    "phone" : "02-89539805",
    "address" : "新北市板橋區重慶路290巷3號"
  },
  {
    "name" : "全家板橋溪崑店",
    "lng" : "121.425847",
    "lat" : "24.987805",
    "phone" : "02-26876563",
    "address" : "新北市板橋區溪崑二街134號"
  },
  {
    "name" : "全家板橋興僑店",
    "lng" : "121.447084",
    "lat" : "25.011695",
    "phone" : "02-89697997",
    "address" : "新北市板橋區僑中一街90號"
  },
  {
    "name" : "全家板橋雙城店",
    "lng" : "121.467128",
    "lat" : "25.015342",
    "phone" : "02-29544584",
    "address" : "新北市板橋區縣民大道二段106號"
  },
  {
    "name" : "全家林口麗林店",
    "lng" : "121.411980",
    "lat" : "25.028492",
    "phone" : "02-26024790",
    "address" : "新北市林口區中山路522號"
  },
  {
    "name" : "全家林口東林店",
    "lng" : "121.416839",
    "lat" : "25.032142",
    "phone" : "02-86013370",
    "address" : "新北市林口區中山路6號"
  },
  {
    "name" : "全家林口東林店 ",
    "lng" : "121.416839",
    "lat" : "25.032142",
    "phone" : "02-86013370",
    "address" : "新北市林口區中山路6號"
  },
  {
    "name" : "全家林口新中林店",
    "lng" : "121.389825",
    "lat" : "25.077750",
    "phone" : "02-86014581",
    "address" : "新北市林口區中正路168號"
  },
  {
    "name" : "全家林口文園店 ",
    "lng" : "121.372817",
    "lat" : "25.072748",
    "phone" : "02-26090261 ",
    "address" : "新北市林口區公園路178號"
  },
  {
    "name" : "全家泰山同興店",
    "lng" : "121.432529",
    "lat" : "25.053248",
    "phone" : "02-29007443",
    "address" : "新北市泰山區仁義路220巷8號1樓"
  },
  {
    "name" : "全家泰山辭修店",
    "lng" : "121.432001",
    "lat" : "25.059796",
    "phone" : "02-22971269",
    "address" : "新北市泰山區明志路一段374號"
  },
  {
    "name" : "全家泰山工專店 ",
    "lng" : "121.424196",
    "lat" : "25.039253",
    "phone" : "02-29046856",
    "address" : "新北市泰山區明志路三段170號"
  },
  {
    "name" : "全家淡水新生店 ",
    "lng" : "121.442443",
    "lat" : "25.178238",
    "phone" : "02-26224332 ",
    "address" : "新北市淡水區大義街11號"
  },
  {
    "name" : "全家淡水金堡店",
    "lng" : "121.444034",
    "lat" : "25.185157",
    "phone" : "02-26236102",
    "address" : "新北市淡水區中山北路二段185號"
  },
  {
    "name" : "全家淡水水源店",
    "lng" : "121.447318",
    "lat" : "25.171858",
    "phone" : "02-26291496",
    "address" : "新北市淡水區水源街一段124號"
  },
  {
    "name" : "全家淡水富山店",
    "lng" : "121.452338",
    "lat" : "25.177021",
    "phone" : "02-26239971",
    "address" : "新北市淡水區水源街二段177巷67號"
  },
  {
    "name" : "全家淡水沙崙店",
    "lng" : "121.423380",
    "lat" : "25.183057",
    "phone" : "02-28050829",
    "address" : "新北市淡水區沙崙路149號"
  },
  {
    "name" : "全家淡水淡水店",
    "lng" : "121.446067",
    "lat" : "25.169951",
    "phone" : "02-26237472",
    "address" : "新北市淡水區博愛街14號"
  },
  {
    "name" : "全家新店福民店",
    "lng" : "121.530212",
    "lat" : "24.973382",
    "phone" : "02-22194351",
    "address" : "新北市新店區中央路145號"
  },
  {
    "name" : "全家新店中欣店",
    "lng" : "121.545634",
    "lat" : "24.969257",
    "phone" : "02-29156887",
    "address" : "新北市新店區中正路3號"
  },
  {
    "name" : "全家新店大鵬店",
    "lng" : "121.534162",
    "lat" : "24.990668",
    "phone" : "02-22184729",
    "address" : "新北市新店區中正路698號"
  },
  {
    "name" : "全家新店中華店",
    "lng" : "121.539679",
    "lat" : "24.968555",
    "phone" : "02-86658913",
    "address" : "新北市新店區中華路50號"
  },
  {
    "name" : "全家新店站前店 ",
    "lng" : "121.537903",
    "lat" : "24.957738",
    "phone" : "02-29147259",
    "address" : "新北市新店區北宜路一段6號"
  },
  {
    "name" : "全家新店新民族店",
    "lng" : "121.538683",
    "lat" : "24.977486",
    "phone" : "02-29137896",
    "address" : "新北市新店區民族路97號"
  },
  {
    "name" : "全家新店安和店 ",
    "lng" : "121.516367",
    "lat" : "24.985612",
    "phone" : "02-29475039",
    "address" : "新北市新店區永平街89號"
  },
  {
    "name" : "全家新店光明店",
    "lng" : "121.539469",
    "lat" : "24.961245",
    "phone" : "02-86654542",
    "address" : "新北市新店區光明路136號1樓"
  },
  {
    "name" : "全家新店安民店",
    "lng" : "121.515105",
    "lat" : "24.964139",
    "phone" : "02-86662484",
    "address" : "新北市新店區安民街1號1樓"
  },
  {
    "name" : "全家新店永安店",
    "lng" : "121.512799",
    "lat" : "24.962494",
    "phone" : "02-86661942",
    "address" : "新北市新店區安康路二段157號"
  },
  {
    "name" : "全家新店寶中店",
    "lng" : "121.547559",
    "lat" : "24.980700",
    "phone" : "02-29117614",
    "address" : "新北市新店區寶中路77號"
  },
  {
    "name" : "全家新店寶興店",
    "lng" : "121.546362",
    "lat" : "24.975410",
    "phone" : "02-86654892",
    "address" : "新北市新店區寶橋路80號"
  },
  {
    "name" : "全家新店福興店",
    "lng" : "121.549218",
    "lat" : "24.973826",
    "phone" : "02-29184961",
    "address" : "新北市新店區寶興路43號"
  },
  {
    "name" : "全家新莊八德店",
    "lng" : "121.425466",
    "lat" : "25.022354",
    "phone" : "02-22014759",
    "address" : "新北市新莊區八德街15巷2號"
  },
  {
    "name" : "全家新莊天成店 ",
    "lng" : "121.413804",
    "lat" : "25.030159",
    "phone" : "02-29018545 ",
    "address" : "新北市新莊區中山路三段125號"
  },
  {
    "name" : "全家新莊福海店",
    "lng" : "121.445326",
    "lat" : "25.034497",
    "phone" : "02-22038885",
    "address" : "新北市新莊區中正路401號"
  },
  {
    "name" : "全家新莊龍鳳店 ",
    "lng" : "121.422868",
    "lat" : "25.028774",
    "phone" : "02-29017635 ",
    "address" : "新北市新莊區中正路729號"
  },
  {
    "name" : "全家新莊中環店",
    "lng" : "121.447293",
    "lat" : "25.049940",
    "phone" : "02-29906924",
    "address" : "新北市新莊區中和街155巷2號"
  },
  {
    "name" : "全家新莊福壽店 ",
    "lng" : "121.458203",
    "lat" : "25.054216",
    "phone" : "02-29908643 ",
    "address" : "新北市新莊區中原路45號"
  },
  {
    "name" : "全家新莊中美店",
    "lng" : "121.452096",
    "lat" : "25.047439",
    "phone" : "02-22796927",
    "address" : "新北市新莊區中港路415號1樓"
  },
  {
    "name" : "全家新莊華寧店",
    "lng" : "121.452098",
    "lat" : "25.036795",
    "phone" : "02-29946014",
    "address" : "新北市新莊區中華路一段8號"
  },
  {
    "name" : "全家新莊新園寧店",
    "lng" : "121.449635",
    "lat" : "25.039420",
    "phone" : "02-29949325",
    "address" : "新北市新莊區建興街101號"
  },
  {
    "name" : "全家新莊新建明店",
    "lng" : "121.427098",
    "lat" : "25.025001",
    "phone" : "02-22048981",
    "address" : "新北市新莊區後港一路48號"
  },
  {
    "name" : "全家新莊仁義店",
    "lng" : "121.458335",
    "lat" : "25.048330",
    "phone" : "02-29962848",
    "address" : "新北市新莊區福壽街38號1樓"
  },
  {
    "name" : "全家樹林新全球店 ",
    "lng" : "121.417229",
    "lat" : "24.980150",
    "phone" : "02-86862215 ",
    "address" : "新北市樹林區中華路291號"
  },
  {
    "name" : "全家樹林佳瑪店",
    "lng" : "121.427238",
    "lat" : "24.991531",
    "phone" : "02-26878166",
    "address" : "新北市樹林區博愛街89號"
  },
  {
    "name" : "全家樹林復興店",
    "lng" : "121.418148",
    "lat" : "24.988580",
    "phone" : "02-26873547",
    "address" : "新北市樹林區復興路272號"
  },
  {
    "name" : "全家蘆洲民仁店 ",
    "lng" : "121.472467",
    "lat" : "25.092044",
    "phone" : "02-82835024",
    "address" : "新北市蘆洲區民族路448號"
  },
  {
    "name" : "全家蘆洲光華店",
    "lng" : "121.466348",
    "lat" : "25.082487",
    "phone" : "02-82823555",
    "address" : "新北市蘆洲區光華路132巷1號"
  },
  {
    "name" : "全家蘆洲長發店",
    "lng" : "121.464059",
    "lat" : "25.078995",
    "phone" : "02-82860503",
    "address" : "新北市蘆洲區長安街11號"
  },
  {
    "name" : "全家蘆洲長興店 ",
    "lng" : "121.459280",
    "lat" : "25.083146",
    "phone" : "02-28481192 ",
    "address" : "新北市蘆洲區長安街168號"
  },
  {
    "name" : "全家蘆洲復興店",
    "lng" : "121.471980",
    "lat" : "25.085396",
    "phone" : "02-82852663",
    "address" : "新北市蘆洲區復興路11號1樓"
  },
  {
    "name" : "全家鶯歌行政店",
    "lng" : "121.352280",
    "lat" : "24.955988",
    "phone" : "02-26781963",
    "address" : "新北市鶯歌區中正一路154號"
  },
  {
    "name" : "全家鶯歌永明店",
    "lng" : "121.341210",
    "lat" : "24.955868",
    "phone" : "02-26703617",
    "address" : "新北市鶯歌區永明街78號"
  },
  {
    "name" : "全家鶯歌站前店",
    "lng" : "121.355158",
    "lat" : "24.954914",
    "phone" : "02-86774875",
    "address" : "新北市鶯歌區建國路53之5號"
  }
]