[
 
  {
    "name" : "全家高雄得陽店",
    "lng" : "120.331910",
    "lat" : "22.647972",
    "phone" : "07-3819572",
    "address" : "高雄市三民區大昌二路309-1號"
  },
  {
    "name" : "全家高雄大興店",
    "lng" : "120.328784",
    "lat" : "22.654123",
    "phone" : "07-3955446",
    "address" : "高雄市三民區大裕路38號"
  },
  {
    "name" : "全家高雄運河店",
    "lng" : "120.296774",
    "lat" : "22.636317",
    "phone" : "07-2858179",
    "address" : "高雄市三民區自立一路71號"
  },
  {
    "name" : "全家高雄建武店 ",
    "lng" : "120.329036",
    "lat" : "22.642478",
    "phone" : "07-3906846 ",
    "address" : "高雄市三民區建興路79號"
  },
  {
    "name" : "全家高雄凱歌店",
    "lng" : "120.318010",
    "lat" : "22.636497",
    "phone" : "07-2255938",
    "address" : "高雄市三民區凱歌路87號"
  },
  {
    "name" : "全家高雄陽明店",
    "lng" : "120.342148",
    "lat" : "22.642489",
    "phone" : "07-3875240",
    "address" : "高雄市三民區陽明路196號"
  },
  {
    "name" : "全家高雄鼎祥店",
    "lng" : "120.315837",
    "lat" : "22.666176",
    "phone" : "07-3463667",
    "address" : "高雄市三民區鼎祥街73號"
  },
  {
    "name" : "全家高雄鼎貴店",
    "lng" : "120.322238",
    "lat" : "22.674652",
    "phone" : "07-3475162",
    "address" : "高雄市三民區鼎貴路208號"
  },
  {
    "name" : "全家大發仁愛店 ",
    "lng" : "120.395043",
    "lat" : "22.636129",
    "phone" : "07-7012590 ",
    "address" : "高雄市大寮區仁愛路22號"
  },
  {
    "name" : "全家高雄民益店",
    "lng" : "120.347983",
    "lat" : "22.565535",
    "phone" : "07-8016432",
    "address" : "高雄市小港區二苓路246號"
  },
  {
    "name" : "全家高雄機場店",
    "lng" : "120.347842",
    "lat" : "22.569243",
    "phone" : "07-8068559",
    "address" : "高雄市小港區中山四路2號"
  },
  {
    "name" : "全家高雄宏光店 ",
    "lng" : "120.364256",
    "lat" : "22.568417",
    "phone" : "07-8067310 ",
    "address" : "高雄市小港區漢民路786號"
  },
  {
    "name" : "全家仁武八德店 ",
    "lng" : "120.335671",
    "lat" : "22.689181",
    "phone" : "07-3758737 ",
    "address" : "高雄市仁武區八德一路422號"
  },
  {
    "name" : "全家仁武鳳仁店 ",
    "lng" : "120.362439",
    "lat" : "22.633469",
    "phone" : "07-3741130 ",
    "address" : "高雄市仁武區鳳仁路45號"
  },
  {
    "name" : "全家仁武澄觀店",
    "lng" : "120.357976",
    "lat" : "22.694299",
    "phone" : "07-3724926",
    "address" : "高雄市仁武區澄觀路一段1111號"
  },
  {
    "name" : "全家高雄立信店",
    "lng" : "120.304075",
    "lat" : "22.666912",
    "phone" : "07-5565617",
    "address" : "高雄市左營區立信路209號"
  },
  {
    "name" : "全家高雄孟子店",
    "lng" : "120.305656",
    "lat" : "22.676690",
    "phone" : "07-3105707",
    "address" : "高雄市左營區孟子路515號"
  },
  {
    "name" : "全家高雄富國店 ",
    "lng" : "120.306739",
    "lat" : "22.658162",
    "phone" : "07-5590732",
    "address" : "高雄市左營區富國路48號"
  },
  {
    "name" : "全家高雄華山店",
    "lng" : "120.319219",
    "lat" : "22.688812",
    "phone" : "07-3418769",
    "address" : "高雄市左營區華夏路1761號"
  },
  {
    "name" : "全家高雄華珍店 ",
    "lng" : "120.298097",
    "lat" : "22.673198",
    "phone" : "07-3412687 ",
    "address" : "高雄市左營區新莊一路143號"
  },
  {
    "name" : "全家岡山忠誠店",
    "lng" : "120.296241",
    "lat" : "22.803146",
    "phone" : "07-6217220",
    "address" : "高雄市岡山區成功路97號"
  },
  {
    "name" : "全家岡山平和店",
    "lng" : "120.295570",
    "lat" : "22.794626",
    "phone" : "07-6214732",
    "address" : "高雄市岡山區岡山路277之1號"
  },
  {
    "name" : "全家林園文林店",
    "lng" : "120.392342",
    "lat" : "22.503494",
    "phone" : "07-6417056",
    "address" : "高雄市林園區東林西路137號"
  },
  {
    "name" : "全家高雄榮安店",
    "lng" : "120.293320",
    "lat" : "22.630803",
    "phone" : "07-2827415",
    "address" : "高雄市前金區自強一路64號1樓"
  },
  {
    "name" : "全家高雄河東店 ",
    "lng" : "120.291130",
    "lat" : "22.621998",
    "phone" : "07-2714635 ",
    "address" : "高雄市前金區河東路10號"
  },
  {
    "name" : "全家高雄草衙店 ",
    "lng" : "120.322365",
    "lat" : "22.578753",
    "phone" : "07-8157455 ",
    "address" : "高雄市前鎮區草衙二路403號"
  },
  {
    "name" : "全家高雄聖心店",
    "lng" : "120.311306",
    "lat" : "22.612016",
    "phone" : "07-3387057",
    "address" : "高雄市前鎮區復興三路146號"
  },
  {
    "name" : "全家高雄祥瑞店",
    "lng" : "120.328785",
    "lat" : "22.608717",
    "phone" : "07-7174418",
    "address" : "高雄市前鎮區瑞北路223號"
  },
  {
    "name" : "全家高雄忠孝店",
    "lng" : "120.309483",
    "lat" : "22.615805",
    "phone" : "07-3317931",
    "address" : "高雄市苓雅區三多三路168號"
  },
  {
    "name" : "全家高雄亞太店",
    "lng" : "120.301588",
    "lat" : "22.612819",
    "phone" : "07-2691476",
    "address" : "高雄市苓雅區三多四路65號1樓"
  },
  {
    "name" : "全家高雄新義店",
    "lng" : "120.339963",
    "lat" : "22.631530",
    "phone" : "07-7491018",
    "address" : "高雄市苓雅區正義路176號"
  },
  {
    "name" : "全家高雄實踐店",
    "lng" : "120.319338",
    "lat" : "22.627134",
    "phone" : "07-2265917 ",
    "address" : "高雄市苓雅區和平一路130號"
  },
  {
    "name" : "全家鳥松大華店",
    "lng" : "120.337423",
    "lat" : "22.656245",
    "phone" : "07-3709772",
    "address" : "高雄市鳥松區球場路75號"
  },
  {
    "name" : "全家高雄福華店",
    "lng" : "120.308631",
    "lat" : "22.633945",
    "phone" : "07-2360858",
    "address" : "高雄市新興區七賢一路301號1樓"
  },
  {
    "name" : "全家高雄尚義店",
    "lng" : "120.315037",
    "lat" : "22.630701",
    "phone" : "07-2231461",
    "address" : "高雄市新興區中正二路220號1樓"
  },
  {
    "name" : "全家高雄清豐店",
    "lng" : "120.331153",
    "lat" : "22.737699",
    "phone" : "07-3530309",
    "address" : "高雄市楠梓區土庫路61號"
  },
  {
    "name" : "全家高雄後勁店",
    "lng" : "120.310577",
    "lat" : "22.718299",
    "phone" : "07-3657187",
    "address" : "高雄市楠梓區後昌路131號"
  },
  {
    "name" : "全家高雄常德店 ",
    "lng" : "120.337333",
    "lat" : "22.737196",
    "phone" : "07-3521889 ",
    "address" : "高雄市楠梓區常德路320號"
  },
  {
    "name" : "全家高雄創新店",
    "lng" : "120.324447",
    "lat" : "22.740161",
    "phone" : "07-3539146 ",
    "address" : "高雄市楠梓區創新路78號"
  },
  {
    "name" : "全家高雄民昌店",
    "lng" : "120.287751",
    "lat" : "22.719774",
    "phone" : "07-3635456",
    "address" : "高雄市楠梓區德民路989-2號"
  },
  {
    "name" : "全家高雄東賢店 ",
    "lng" : "120.303862",
    "lat" : "22.726497",
    "phone" : "07-3606800 ",
    "address" : "高雄市楠梓區德賢路382號"
  },
  {
    "name" : "全家路竹一甲店",
    "lng" : "120.270745",
    "lat" : "22.871047",
    "phone" : "07-6970649",
    "address" : "高雄市路竹區大仁路326號"
  },
  {
    "name" : "全家高雄美新店",
    "lng" : "120.287779",
    "lat" : "22.652999",
    "phone" : "07-5549521",
    "address" : "高雄市鼓山區美術南三路201號1樓"
  },
  {
    "name" : "全家旗山車站店 ",
    "lng" : "120.484559",
    "lat" : "22.883570",
    "phone" : "07-6626300",
    "address" : "高雄市旗山區大同街23號"
  },
  {
    "name" : "全家鳳山中崙店",
    "lng" : "120.352938",
    "lat" : "22.599461",
    "phone" : "07-7535784",
    "address" : "高雄市鳳山區中崙四路1號"
  },
  {
    "name" : "全家鳳山自強店",
    "lng" : "120.327123",
    "lat" : "22.596626",
    "phone" : "07-8314209",
    "address" : "高雄市鳳山區自強二路147號"
  },
  {
    "name" : "全家鳳山文山店 ",
    "lng" : "120.351728",
    "lat" : "22.643826",
    "phone" : "07- ",
    "address" : "高雄市鳳山區青年路二段460號"
  },
  {
    "name" : "全家鳳山新富店",
    "lng" : "120.344133",
    "lat" : "22.612872",
    "phone" : "07-7668853",
    "address" : "高雄市鳳山區新富路398號1樓"
  },
  {
    "name" : "全家鳳山瑞興店 ",
    "lng" : "120.366837",
    "lat" : "22.625829",
    "phone" : "07-7191407 ",
    "address" : "高雄市鳳山區瑞興路120號"
  },
  {
    "name" : "全家鳳山誠義店 ",
    "lng" : "120.360533",
    "lat" : "22.608747",
    "phone" : "07-7406564",
    "address" : "高雄市鳳山區誠義路119號"
  },
  {
    "name" : "全家鳳山鳳揚店",
    "lng" : "120.362145",
    "lat" : "22.635204",
    "phone" : "07-7406001",
    "address" : "高雄市鳳山區鳳松路160號"
  },
  {
    "name" : "全家鳳山老爺店",
    "lng" : "120.338543",
    "lat" : "22.597310",
    "phone" : "07-7170515",
    "address" : "高雄市鳳山區鳳南路19號"
  },
  {
    "name" : "全家橋頭建樹店",
    "lng" : "120.305954",
    "lat" : "22.766921",
    "phone" : "07-6128915",
    "address" : "高雄市橋頭區成功北路69號1樓"
  },
  {
    "name" : "全家燕巢新民店",
    "lng" : "120.363512",
    "lat" : "22.793380",
    "phone" : "07-6142940",
    "address" : "高雄市燕巢區中民路535號"
  },
  {
    "name" : "全家高雄福王店",
    "lng" : "120.287296",
    "lat" : "22.622027",
    "phone" : "07-5316702",
    "address" : "高雄市鹽埕區五福四路72號"
  },
  {
    "name" : "全家高雄新樂店",
    "lng" : "120.280534",
    "lat" : "22.626435",
    "phone" : "07-5319796",
    "address" : "高雄市鹽埕區新樂街238號"
  }
]