[
 
  {
    "name" : "全家公館金交流店",
    "lng" : "120.838409",
    "lat" : "24.501921",
    "phone" : "03-7233561",
    "address" : "苗栗縣公館鄉向陽31號"
  },
  {
    "name" : "全家竹南環營店",
    "lng" : "120.873241",
    "lat" : "24.682239",
    "phone" : "03-7480422",
    "address" : "苗栗縣竹南鎮環市路一段162號"
  },
  {
    "name" : "全家後龍金龍店 ",
    "lng" : "120.789399",
    "lat" : "24.614847",
    "phone" : "03-7728553",
    "address" : "苗栗縣後龍鎮中山路59號"
  },
  {
    "name" : "全家後龍新東店",
    "lng" : "120.830569",
    "lat" : "24.599903",
    "phone" : "03-7731679",
    "address" : "苗栗縣後龍鎮新東路55之21號"
  },
  {
    "name" : "全家苗栗新農會店",
    "lng" : "120.820312",
    "lat" : "24.559150",
    "phone" : "037-359757",
    "address" : "苗栗縣苗栗市中山路524號"
  },
  {
    "name" : "全家苗栗新大發店",
    "lng" : "120.803413",
    "lat" : "24.619775",
    "phone" : "037-261796",
    "address" : "苗栗縣苗栗市中華路673號"
  },
  {
    "name" : "全家苗栗福麗店 ",
    "lng" : "120.816224",
    "lat" : "24.563993",
    "phone" : "03-7378597",
    "address" : "苗栗縣苗栗市民族路132號"
  },
  {
    "name" : "全家苗栗玉清店",
    "lng" : "120.827747",
    "lat" : "24.563551",
    "phone" : "03-7373733",
    "address" : "苗栗縣苗栗市玉清路38號"
  },
  {
    "name" : "全家銅鑼新福興店",
    "lng" : "120.788922",
    "lat" : "24.492415",
    "phone" : "037-981203",
    "address" : "苗栗縣銅鑼鄉平陽路40-6號"
  },
  {
    "name" : "全家頭份大同店",
    "lng" : "120.913613",
    "lat" : "24.693712",
    "phone" : "037-598262",
    "address" : "苗栗縣頭份鎮大同路1號"
  },
  {
    "name" : "全家頭份文化店 ",
    "lng" : "120.899400",
    "lat" : "24.698897",
    "phone" : "03-7687195",
    "address" : "苗栗縣頭份鎮文化街209號"
  },
  {
    "name" : "全家頭份為恭店",
    "lng" : "120.907311",
    "lat" : "24.686981",
    "phone" : "03-7597731",
    "address" : "苗栗縣頭份鎮信義路128號"
  }
]