[
 
  {
    "name" : "全家斗六上海店",
    "lng" : "120.539692",
    "lat" : "23.713251",
    "phone" : "05-5373410",
    "address" : "雲林縣斗六市上海路176號"
  },
  {
    "name" : "全家斗六榮大店",
    "lng" : "120.554631",
    "lat" : "23.704899",
    "phone" : "05-5360113",
    "address" : "雲林縣斗六市大學路一段402號1樓"
  },
  {
    "name" : "全家斗六社口店 ",
    "lng" : "120.538449",
    "lat" : "23.701326",
    "phone" : "05-5360684 ",
    "address" : "雲林縣斗六市中山路321號"
  },
  {
    "name" : "全家斗六莊敬店",
    "lng" : "120.551407",
    "lat" : "23.704942",
    "phone" : "05-5338296",
    "address" : "雲林縣斗六市成功路280號"
  },
  {
    "name" : "全家斗南新陽光店",
    "lng" : "120.473735",
    "lat" : "23.675350",
    "phone" : "05-5968582 ",
    "address" : "雲林縣斗南鎮大成路62號"
  },
  {
    "name" : "全家斗南大業店",
    "lng" : "120.464996",
    "lat" : "23.694314",
    "phone" : "05-5974872",
    "address" : "雲林縣斗南鎮大業路243號"
  },
  {
    "name" : "全家北港財神店 ",
    "lng" : "120.300849",
    "lat" : "23.578521",
    "phone" : "05-7821172",
    "address" : "雲林縣北港鎮文仁路143號"
  },
  {
    "name" : "全家西螺延平店 ",
    "lng" : "120.459104",
    "lat" : "23.800951",
    "phone" : "05-5873047 ",
    "address" : "雲林縣西螺鎮延平路191號"
  },
  {
    "name" : "全家虎尾平和店",
    "lng" : "120.446351",
    "lat" : "23.709530",
    "phone" : "05-6324174",
    "address" : "雲林縣虎尾鎮光復路126號"
  },
  {
    "name" : "全家虎尾立人店",
    "lng" : "120.427789",
    "lat" : "23.707132",
    "phone" : "05-6325725",
    "address" : "雲林縣虎尾鎮復興路177號"
  },
  {
    "name" : "全家崙背永昌店",
    "lng" : "120.353680",
    "lat" : "23.759993",
    "phone" : "05-6967662",
    "address" : "雲林縣崙背鄉南光路1-10號"
  },
  {
    "name" : "全家麥寮新和順店",
    "lng" : "120.256206",
    "lat" : "23.747672",
    "phone" : "05-6939370",
    "address" : "雲林縣麥寮鄉光復路34號"
  },
  {
    "name" : "全家麥寮橋頭店",
    "lng" : "120.273787",
    "lat" : "23.797002",
    "phone" : "05-6911471",
    "address" : "雲林縣麥寮鄉橋頭路327號"
  }
]