[
 
  {
    "name" : "全家吉安慶豐店",
    "lng" : "121.567306",
    "lat" : "23.979860",
    "phone" : "03-8521566",
    "address" : "花蓮縣吉安鄉中山路三段450號"
  },
  {
    "name" : "全家吉安鑫莊敬店",
    "lng" : "121.593781",
    "lat" : "23.989227",
    "phone" : "03-8561115",
    "address" : "花蓮縣吉安鄉自強路603號"
  },
  {
    "name" : "全家花蓮建中店",
    "lng" : "121.601653",
    "lat" : "23.986687",
    "phone" : "03-8315576",
    "address" : "花蓮縣花蓮市中山路547之2號"
  },
  {
    "name" : "全家花蓮維中店",
    "lng" : "121.591476",
    "lat" : "24.000350",
    "phone" : "03-8575073",
    "address" : "花蓮縣花蓮市中山路一段200號"
  },
  {
    "name" : "全家花蓮慈濟店",
    "lng" : "121.592367",
    "lat" : "23.995009",
    "phone" : "03-8571610",
    "address" : "花蓮縣花蓮市中央路三段707號3樓 "
  },
  {
    "name" : "全家花蓮榮正店",
    "lng" : "121.599397",
    "lat" : "23.972102",
    "phone" : "03-8336312",
    "address" : "花蓮縣花蓮市中正路207號"
  },
  {
    "name" : "全家花蓮正國店",
    "lng" : "121.607844",
    "lat" : "23.977661",
    "phone" : "03-8358084",
    "address" : "花蓮縣花蓮市中正路569號"
  },
  {
    "name" : "全家花蓮光復店",
    "lng" : "121.605917",
    "lat" : "23.979172",
    "phone" : "03-8316381",
    "address" : "花蓮縣花蓮市民國路121號"
  },
  {
    "name" : "全家花蓮博愛店 ",
    "lng" : "121.606369",
    "lat" : "23.981890",
    "phone" : "03-8352319 ",
    "address" : "花蓮縣花蓮市林森路250號"
  },
  {
    "name" : "全家花蓮慈安店",
    "lng" : "121.572923",
    "lat" : "23.993768",
    "phone" : "03-8463933",
    "address" : "花蓮縣花蓮市建國路二段876號"
  },
  {
    "name" : "全家花蓮國盛店",
    "lng" : "121.605304",
    "lat" : "23.992309",
    "phone" : "03-8328037",
    "address" : "花蓮縣花蓮市國聯五路126號"
  },
  {
    "name" : "全家新城新興店",
    "lng" : "121.646147",
    "lat" : "24.130769",
    "phone" : "03-8611192",
    "address" : "花蓮縣新城鄉新興路8號"
  },
  {
    "name" : "全家新城民益店",
    "lng" : "121.613102",
    "lat" : "24.006678",
    "phone" : "03-8225610",
    "address" : "花蓮縣新城鄉嘉新村嘉新路45號"
  }
]