[
 
  {
    "name" : "全家台東太麻里店 ",
    "lng" : "121.005173",
    "lat" : "22.610415",
    "phone" : "089-780150",
    "address" : "台東縣太麻里鄉太麻里街316號1樓"
  },
  {
    "name" : "全家台東鐵花店",
    "lng" : "121.149617",
    "lat" : "22.750331",
    "phone" : "089-338872",
    "address" : "台東縣台東市中華路一段575號"
  },
  {
    "name" : "全家台東南王店",
    "lng" : "121.123626",
    "lat" : "22.780076",
    "phone" : "089-224995",
    "address" : "台東縣台東市更生北路603號"
  },
  {
    "name" : "全家台東維新店",
    "lng" : "121.139105",
    "lat" : "22.765130",
    "phone" : "089-347383",
    "address" : "台東縣台東市更生路575號"
  },
  {
    "name" : "全家台東新生店",
    "lng" : "121.139200",
    "lat" : "22.760226",
    "phone" : "089-341973",
    "address" : "台東縣台東市開封街646號"
  },
  {
    "name" : "全家台東四維店",
    "lng" : "121.143898",
    "lat" : "22.765690",
    "phone" : "089-348139",
    "address" : "台東縣台東市傳廣路399號1樓"
  },
  {
    "name" : "全家台東豐榮店",
    "lng" : "121.135533",
    "lat" : "22.750246",
    "phone" : "089-341938",
    "address" : "台東縣台東市豐榮路187號"
  },
  {
    "name" : "全家成功中華店",
    "lng" : "121.379553",
    "lat" : "23.100983",
    "phone" : "089-853820",
    "address" : "台東縣成功鎮中華路123號"
  },
  {
    "name" : "全家台東和平店",
    "lng" : "121.086975",
    "lat" : "22.782194",
    "phone" : "089-380790",
    "address" : "台東縣卑南鄉和平路102號"
  }
]