[
  {
    "name" : "觀景門市",
    "lng" : "121.428059",
    "lat" : "25.161629",
    "phone" : "(02)26107757 ",
    "address" : "新北市八里區觀海大道53號"
  },
  {
    "name" : "虹諭門市",
    "lng" : "121.479051",
    "lat" : "25.070948",
    "phone" : "(02)29848146 ",
    "address" : "新北市三重區中正北路193巷21弄43號"
  },
  {
    "name" : "文興門市",
    "lng" : "121.500028",
    "lat" : "25.062384",
    "phone" : "(02)89727842 ",
    "address" : "新北市三重區文化南路7號"
  },
  {
    "name" : "車路頭門市",
    "lng" : "121.484120",
    "lat" : "25.075811",
    "phone" : "(02)22800354 ",
    "address" : "新北市三重區車路頭街135號"
  },
  {
    "name" : "集美門市",
    "lng" : "121.489429",
    "lat" : "25.052865",
    "phone" : "(02)29772012 ",
    "address" : "新北市三重區集美街107號"
  },
  {
    "name" : "新北大門市",
    "lng" : "121.374925",
    "lat" : "24.943403",
    "phone" : "(02)26714880 ",
    "address" : "新北市三峽區大學路156號1樓"
  },
  {
    "name" : "聖運門市",
    "lng" : "121.448094",
    "lat" : "24.982977",
    "phone" : "(02)22730671 ",
    "address" : "新北市土城區柑林里明德路二段159號"
  },
  {
    "name" : "冠德門市",
    "lng" : "121.518857",
    "lat" : "24.991496",
    "phone" : "(02)29405370 ",
    "address" : "新北市中和區景平路71-5號"
  },
  {
    "name" : "聖武門市",
    "lng" : "121.483214",
    "lat" : "25.003099",
    "phone" : "(02)22224961 ",
    "address" : "新北市中和區新生街48號50號1樓"
  },
  {
    "name" : "福勝門市",
    "lng" : "121.498601",
    "lat" : "25.007558",
    "phone" : "(02)22499480 ",
    "address" : "新北市中和區福祥路158號"
  },
  {
    "name" : "新台門市",
    "lng" : "121.447980",
    "lat" : "25.064129",
    "phone" : "(02)22997131 ",
    "address" : "新北市五股區五工六路14號"
  },
  {
    "name" : "大五股門市",
    "lng" : "121.438011",
    "lat" : "25.083658",
    "phone" : "(02)22953630 ",
    "address" : "新北市五股區成泰路二段81號"
  },
  {
    "name" : "豫溪門市",
    "lng" : "121.516153",
    "lat" : "25.009985",
    "phone" : "(02)29295836 ",
    "address" : "新北市永和區中正路702巷1號3號及中正路710號"
  },
  {
    "name" : "福百門市",
    "lng" : "121.636273",
    "lat" : "25.066451",
    "phone" : "(02)26933348 ",
    "address" : "新北市汐止區福德一路161號"
  },
  {
    "name" : "新樟樹門市",
    "lng" : "121.640781",
    "lat" : "25.068541",
    "phone" : "(02)26436365 ",
    "address" : "新北市汐止區樟樹二路255號"
  },
  {
    "name" : "新觀和門市",
    "lng" : "121.446719",
    "lat" : "25.002767",
    "phone" : "(02)22754553 ",
    "address" : "新北市板橋區大觀路二段55號57號1樓"
  },
  {
    "name" : "耀心門市",
    "lng" : "121.461164",
    "lat" : "25.008817",
    "phone" : "(02)89541780 ",
    "address" : "新北市板橋區中山路一段50巷22-2-15-39-46號"
  },
  {
    "name" : "偉嘉門市",
    "lng" : "121.467606",
    "lat" : "25.020836",
    "phone" : "(02)22595486 ",
    "address" : "新北市板橋區文化路一段270巷3弄2號"
  },
  {
    "name" : "府中門市",
    "lng" : "121.456358",
    "lat" : "25.009598",
    "phone" : "(02)29654479 ",
    "address" : "新北市板橋區府中路82號84號1樓"
  },
  {
    "name" : "英海門市",
    "lng" : "121.461015",
    "lat" : "25.024355",
    "phone" : "(02)22511636 ",
    "address" : "新北市板橋區雨農路50號"
  },
  {
    "name" : "糧驛門市",
    "lng" : "121.456995",
    "lat" : "25.024620",
    "phone" : "(02)22562936 ",
    "address" : "新北市板橋區德翠里龍泉街93號"
  },
  {
    "name" : "龍翠門市",
    "lng" : "121.473670",
    "lat" : "25.029110",
    "phone" : "(02)22538130 ",
    "address" : "新北市板橋區雙十路二段138之1號138之2號"
  },
  {
    "name" : "奕真門市",
    "lng" : "121.426788",
    "lat" : "25.046823",
    "phone" : "(02)22960960 ",
    "address" : "新北市泰山區明志路二段185號1樓(部份)"
  },
  {
    "name" : "渡船頭門市",
    "lng" : "121.441613",
    "lat" : "25.169530",
    "phone" : "(02)26222172 ",
    "address" : "新北市淡水區中正路57號59號"
  },
  {
    "name" : "英專門市",
    "lng" : "121.445769",
    "lat" : "25.171601",
    "phone" : "(02)86317597 ",
    "address" : "新北市淡水區英專路93號"
  },
  {
    "name" : "真誠門市",
    "lng" : "121.599555",
    "lat" : "25.004381",
    "phone" : "(02)26642915 ",
    "address" : "新北市深坑區北深路三段263號"
  },
  {
    "name" : "統和門市",
    "lng" : "121.517149",
    "lat" : "24.974797",
    "phone" : "(02)86662431 ",
    "address" : "新北市新店區安和里安民街335號337號"
  },
  {
    "name" : "輔大門市",
    "lng" : "121.433449",
    "lat" : "25.032465",
    "phone" : "(02)29026304 ",
    "address" : "新北市新莊區中正路516-1號"
  },
  {
    "name" : "榮和門市",
    "lng" : "121.447832",
    "lat" : "25.051098",
    "phone" : "(02)29919383 ",
    "address" : "新北市新莊區中和街191巷1號3號5號"
  },
  {
    "name" : "光華門市",
    "lng" : "121.428433",
    "lat" : "25.010333",
    "phone" : "(02)22073795 ",
    "address" : "新北市新莊區民安西路390號"
  },
  {
    "name" : "瑞信門市",
    "lng" : "121.805955",
    "lat" : "25.107462",
    "phone" : "(02)24063884 ",
    "address" : "新北市瑞芳區民生街23號"
  },
  {
    "name" : "昌聖門市",
    "lng" : "121.419369",
    "lat" : "24.987576",
    "phone" : "(02)86754204 ",
    "address" : "新北市樹林區文化街21號23號1樓"
  },
  {
    "name" : "武林門市",
    "lng" : "121.413611",
    "lat" : "25.003743",
    "phone" : "(02)26887713 ",
    "address" : "新北市樹林區光華街2號4號"
  },
  {
    "name" : "民欣門市",
    "lng" : "121.461126",
    "lat" : "25.088532",
    "phone" : "(02)28473454 ",
    "address" : "新北市蘆洲區光榮路63號65號67號"
  },
  {
    "name" : "華安門市",
    "lng" : "121.461437",
    "lat" : "25.080880",
    "phone" : "(02)28480247 ",
    "address" : "新北市蘆洲區長安街107號"
  }
]