[
  {
    "name" : "福榮門市",
    "lng" : "121.526092",
    "lat" : "25.095529",
    "phone" : "(02)28330676 ",
    "address" : "台北市士林區中正路220號222號"
  },
  {
    "name" : "仟發門市",
    "lng" : "121.519236",
    "lat" : "25.057590",
    "phone" : "(02)25570749 ",
    "address" : "台北市大同區民生西路95號97號"
  },
  {
    "name" : "圓泉門市",
    "lng" : "121.519315",
    "lat" : "25.070694",
    "phone" : "(02)25997457 ",
    "address" : "台北市大同區酒泉街25號27號1樓"
  },
  {
    "name" : "泰利門市",
    "lng" : "121.554234",
    "lat" : "25.036558",
    "phone" : "(02)27058645 ",
    "address" : "台北市大安區仁愛路四段266巷15弄22號"
  },
  {
    "name" : "安居門市",
    "lng" : "121.554426",
    "lat" : "25.020451",
    "phone" : "(02)27332560 ",
    "address" : "台北市大安區安居街33號"
  },
  {
    "name" : "統家門市",
    "lng" : "121.553341",
    "lat" : "25.039971",
    "phone" : "(02)27212029 ",
    "address" : "台北市大安區忠孝東路四段216巷27弄1號1樓"
  },
  {
    "name" : "華電門市",
    "lng" : "121.553541",
    "lat" : "25.027566",
    "phone" : "(02)27329694 ",
    "address" : "台北市大安區通化街177號"
  },
  {
    "name" : "崇光門市",
    "lng" : "121.544540",
    "lat" : "25.042696",
    "phone" : "(02)27218292 ",
    "address" : "台北市大安區復興南路一段135巷5號"
  },
  {
    "name" : "濟南門市",
    "lng" : "121.533873",
    "lat" : "25.040071",
    "phone" : "(02)27409693 ",
    "address" : "台北市大安區濟南路三段12號1樓"
  },
  {
    "name" : "吉安門市",
    "lng" : "121.530479",
    "lat" : "25.064896",
    "phone" : "(02)25943806 ",
    "address" : "台北市中山區吉林路365號367號"
  },
  {
    "name" : "松運門市",
    "lng" : "121.533228",
    "lat" : "25.051149",
    "phone" : "(02)25179248 ",
    "address" : "台北市中山區松江路101號"
  },
  {
    "name" : "榮鑫門市",
    "lng" : "121.536767",
    "lat" : "25.065696",
    "phone" : "(02)25069116 ",
    "address" : "台北市中山區建國北路三段91號"
  },
  {
    "name" : "千成門市",
    "lng" : "121.522965",
    "lat" : "25.043965",
    "phone" : "(02)23577481 ",
    "address" : "台北市中正區林森南路4號之3"
  },
  {
    "name" : "興信鑫門市",
    "lng" : "121.515885",
    "lat" : "25.044567",
    "phone" : "(02)23144196 ",
    "address" : "台北市中正區信陽街12號14號1樓"
  },
  {
    "name" : "博源門市",
    "lng" : "121.531095",
    "lat" : "25.014415",
    "phone" : "(02)23684419 ",
    "address" : "台北市中正區思源街16號"
  },
  {
    "name" : "鑫台北門市",
    "lng" : "121.518440",
    "lat" : "25.046205",
    "phone" : "(02)23312768 ",
    "address" : "台北市中正區黎明里忠孝西路一段35號一樓"
  },
  {
    "name" : "名寶門市",
    "lng" : "121.580579",
    "lat" : "25.067673",
    "phone" : "(02)87914208 ",
    "address" : "台北市內湖區民權東路六段180巷17號19號"
  },
  {
    "name" : "明湖門市",
    "lng" : "121.614071",
    "lat" : "25.068865",
    "phone" : "(02)26323734 ",
    "address" : "台北市內湖區東湖路45號"
  },
  {
    "name" : "德馨門市",
    "lng" : "121.573343",
    "lat" : "25.079040",
    "phone" : "(02)87511020 ",
    "address" : "台北市內湖區洲子街46號"
  },
  {
    "name" : "文忠門市",
    "lng" : "121.562380",
    "lat" : "24.984512",
    "phone" : "(02)29379722 ",
    "address" : "台北市文山區忠順街二段10號1樓"
  },
  {
    "name" : "政大門市",
    "lng" : "121.575542",
    "lat" : "24.987804",
    "phone" : "(02)29362025 ",
    "address" : "台北市文山區指南路二段99號101號"
  },
  {
    "name" : "新豪美門市",
    "lng" : "121.517646",
    "lat" : "25.105640",
    "phone" : "(02)28233553 ",
    "address" : "台北市北投區文林北路98號100號"
  },
  {
    "name" : "統勝門市",
    "lng" : "121.514648",
    "lat" : "25.110590",
    "phone" : "(02)28234063 ",
    "address" : "台北市北投區自強街82號"
  },
  {
    "name" : "關渡門市",
    "lng" : "121.467472",
    "lat" : "25.121744",
    "phone" : "(02)28581719 ",
    "address" : "台北市北投區知行路282號"
  },
  {
    "name" : "台場門市",
    "lng" : "121.551158",
    "lat" : "25.048086",
    "phone" : "(02)25794824 ",
    "address" : "台北市松山區八德路三段20-2號"
  },
  {
    "name" : "敦厚門市",
    "lng" : "121.568613",
    "lat" : "25.042040",
    "phone" : "(02)27677884 ",
    "address" : "台北市信義區永吉路30巷168弄1號1樓"
  },
  {
    "name" : "松高門市",
    "lng" : "121.565948",
    "lat" : "25.042840",
    "phone" : "(02)27670810 ",
    "address" : "台北市信義區基隆路一段141號1樓"
  },
  {
    "name" : "玉德門市",
    "lng" : "121.583643",
    "lat" : "25.045000",
    "phone" : "(02)27863772 ",
    "address" : "台北市南港區玉成街150號1樓"
  },
  {
    "name" : "鑫樂昇門市",
    "lng" : "121.504788",
    "lat" : "25.045121",
    "phone" : "(02)23754357 ",
    "address" : "台北市萬華區武昌街二段114之3號"
  },
  {
    "name" : "捷盟門市",
    "lng" : "121.507448",
    "lat" : "25.044047",
    "phone" : "(02)23895672 ",
    "address" : "台北市萬華區漢中街51號"
  },
  {
    "name" : "雙環門市",
    "lng" : "121.491540",
    "lat" : "25.032052",
    "phone" : "(02)23361021 ",
    "address" : "台北市萬華區環河南路二段207號"
  }
]