[
  {
    "name" : "坎城門市",
    "lng" : "120.308598",
    "lat" : "22.644950",
    "phone" : "(07)3116563 ",
    "address" : "高雄市三民區十全一路183號"
  },
  {
    "name" : "覺民門市",
    "lng" : "120.341631",
    "lat" : "22.639028",
    "phone" : "(07)3892352 ",
    "address" : "高雄市三民區覺民路113號115號"
  },
  {
    "name" : "博正門市",
    "lng" : "120.304031",
    "lat" : "22.658389",
    "phone" : "(07)5578128 ",
    "address" : "高雄市左營區忠言路174號"
  },
  {
    "name" : "凹仔底門市",
    "lng" : "120.305008",
    "lat" : "22.665837",
    "phone" : "(07)5574859 ",
    "address" : "高雄市左營區新上里裕誠路448號"
  },
  {
    "name" : "重惠門市",
    "lng" : "120.308789",
    "lat" : "22.683776",
    "phone" : "(07)3457904 ",
    "address" : "高雄市左營區福山里華夏路1152號1樓"
  },
  {
    "name" : "仁富門市",
    "lng" : "120.301504",
    "lat" : "22.804386",
    "phone" : "(07)6213744 ",
    "address" : "高雄市岡山區大仁路138號"
  },
  {
    "name" : "利明門市",
    "lng" : "120.288125",
    "lat" : "22.795321",
    "phone" : "(07)6257053 ",
    "address" : "高雄市岡山區壽峰里前峰路80號"
  },
  {
    "name" : "愛河門市",
    "lng" : "120.291124",
    "lat" : "22.621683",
    "phone" : "(07)2414252 ",
    "address" : "高雄市前金區博孝里河東路8號1樓"
  },
  {
    "name" : "夢時代一門市",
    "lng" : "120.307335",
    "lat" : "22.595742",
    "phone" : "(07)8231906 ",
    "address" : "高雄市前鎮區中華五路789號B2樓"
  },
  {
    "name" : "武漢門市",
    "lng" : "120.328431",
    "lat" : "22.620847",
    "phone" : "(07)7214004 ",
    "address" : "高雄市苓雅區武漢街72號"
  },
  {
    "name" : "強泥門市",
    "lng" : "120.300780",
    "lat" : "22.611585",
    "phone" : "(07)2691342 ",
    "address" : "高雄市苓雅區意誠里自強三路16號18號"
  },
  {
    "name" : "華堂門市",
    "lng" : "120.306277",
    "lat" : "22.616056",
    "phone" : "(07)3384922 ",
    "address" : "高雄市苓雅區廣澤里文橫二路41號"
  },
  {
    "name" : "常德門市",
    "lng" : "120.336876",
    "lat" : "22.736547",
    "phone" : "(07)3532424 ",
    "address" : "高雄市楠梓區清豐里常德路287號"
  },
  {
    "name" : "美珍門市",
    "lng" : "120.291382",
    "lat" : "22.660993",
    "phone" : "(07)5502901 ",
    "address" : "高雄市鼓山區明誠四路23號"
  },
  {
    "name" : "美藝門市",
    "lng" : "120.287956",
    "lat" : "22.654745",
    "phone" : "(07)5529812 ",
    "address" : "高雄市鼓山區龍水里美術東二路103號1樓"
  },
  {
    "name" : "鼓波門市",
    "lng" : "120.271819",
    "lat" : "22.622982",
    "phone" : "(07)5312364 ",
    "address" : "高雄市鼓山區臨海二路45-1號"
  },
  {
    "name" : "新林眾門市",
    "lng" : "120.482164",
    "lat" : "22.898224",
    "phone" : "(07)6624077 ",
    "address" : "高雄市旗山區延平一路78-1號"
  },
  {
    "name" : "旗皇門市",
    "lng" : "120.272346",
    "lat" : "22.605135",
    "phone" : "(07)5713430 ",
    "address" : "高雄市旗津區中華里旗津三路900巷1號3號"
  },
  {
    "name" : "高鳳門市",
    "lng" : "120.340312",
    "lat" : "22.629300",
    "phone" : "(07)7460354 ",
    "address" : "高雄市鳳山區忠義里中山西路398號400號"
  },
  {
    "name" : "鳳頂門市",
    "lng" : "120.358748",
    "lat" : "22.592699",
    "phone" : "(07)7928892 ",
    "address" : "高雄市鳳山區過埤里鳳頂路285號1樓"
  },
  {
    "name" : "燕巢門市",
    "lng" : "120.361676",
    "lat" : "22.793272",
    "phone" : "(07)6168128 ",
    "address" : "高雄市燕巢區西燕里中民路612號"
  },
  {
    "name" : "新建門市",
    "lng" : "120.280466",
    "lat" : "22.626105",
    "phone" : "(07)5216102 ",
    "address" : "高雄市鹽埕區建國四路175號"
  }
]